"id","properties_stop_name","lat","lng","kod_zsj_d"
"0","Želenice u Slaného","50.20746","14.192","1959100"
"1","K.Hora hl.n.náv.L11a","49.95991","15.30304","0779680"
"10","Velký Osek-Kanín","50.11534","15.21084","1119700"
"100","TRAM Palmovka, Ohrada","50.09895","14.438320000000001","1301170"
"1001","Butovická","50.05155","14.36263","1287320"
"1003","Pod Lochkovem","50.0027","14.35028","0864280"
"1007","Kladno,Divadlo","50.14495","14.106060000000001","0650640"
"1009","Hadovitá","50.051559999999995","14.456729999999999","1277520"
"1011","Balabenka","50.10476","14.4828","1313420"
"1018","Nová Ves","50.21914","14.534220000000001","1054140"
"102","Praha-Bubny","50.099","14.43869","1301170"
"1020","Čakovičky","50.23186","14.5298","1054060"
"1022","Kojetice","50.23803","14.50835","0678570"
"1024","Neratovice,Kojetická","50.25282","14.519670000000001","3073430"
"1027","Neratovice,Nám.Republiky","50.2598","14.516960000000001","1035600"
"1029","Neratovice,Žel.st.","50.26204","14.51715","1035600"
"103","TRAM Žižkov, centrum","50.09922","14.43847","1301170"
"1030","Neratovice","50.262679999999996","14.517510000000001","1036080"
"1031","Libiš,Spolana 3","50.27048","14.51395","1036240"
"1033","Libiš,Spolana 4","50.27425","14.513379999999998","3193920"
"1035","Líbeznice,II","50.19523","14.496410000000001","0826600"
"1037","Líbeznice,Škola","50.19542","14.499220000000001","0826600"
"1038","Hadovka","50.09942","14.37514","1292830"
"104","vlaková zastávka Praha-Bubny Vltavská","50.09949","14.43855","1301170"
"1040","Tuchoměřice,U Dvora","50.12683","14.272860000000001","1713520"
"1042","Polerady,Rozc.","50.20131","14.589379999999998","1252110"
"1044","Líbeznice,Zdrav.stř.","50.191309999999994","14.49581","0826600"
"1046","Nučice,Na Kladívku","49.95879","14.88277","1081030"
"1048","Malotice,Lhotky","49.95524","14.9557","0911710"
"1050","Tuchoměřice,Kněžívka","50.13038","14.27554","1713520"
"1052","Tuchoměřice,Obecní úřad","50.132740000000005","14.279539999999999","1713440"
"1054","Tuchoměřice,Zámek","50.13575","14.28","1713440"
"1056","Hájek","50.05052","14.628079999999999","1733980"
"1060","Lichoceves","50.1539","14.284970000000001","0837980"
"1063","Tuchoměřice,Pastvišťata","50.132979999999996","14.29067","1713440"
"1065","Jesenice,Zdiměřice,bytovky","49.98328","14.52537","1132800"
"1067","Sídliště Skalka","50.062529999999995","14.51113","1317920"
"1069","Kostomlaty n.L.","50.18654","14.954820000000002","0706290"
"107","Bubenská","50.0981","14.436589999999999","1301250"
"1071","Jesenice,Zdiměřice,u rybníka","49.97855","14.532229999999998","1132800"
"1073","Jesenice,Kocanda","49.97108","14.54212","1132630"
"1075","Jesenice,Osnice,Hřbitov","49.97358","14.5493","1132710"
"1077","Jesenice,Osnice","49.970040000000004","14.55153","1132710"
"1079","Hájová","50.01735","14.652579999999999","1023260"
"1081","Jesenice","49.96753","14.51477","0586110"
"1085","Vestec,Šátalka","49.9781","14.499229999999999","1810210"
"1087","Jesenice,Bytovky","49.96991","14.50885","0586110"
"1089","Kostomlaty n.L.,Žel.st.","50.18414","14.96168","0706290"
"1091","Kostomlaty nad Labem","50.18592","14.962110000000001","0706290"
"1092","Blažimská","50.04258","14.49285","1282100"
"1093","Jesenice,Belnická","49.9693","14.52907","0586110"
"1095","Chýnovská","50.01635","14.450529999999999","1284140"
"1096","Kostomlátky,Odbočka Doubrava","50.17174","14.96831","0706110"
"1098","Radonice","50.14227","14.61227","1382400"
"11","Nymburk předj.n.","50.18843","15.06441","1083410"
"1100","Hanspaulka","50.104209999999995","14.372979999999998","1292750"
"1102","Kosořice","50.33461","14.96737","0699810"
"1104","Knovízská","50.04137","14.500129999999999","1282100"
"1105","Bachova","50.03119","14.509310000000001","1282610"
"1107","Františka Veselého","50.121559999999995","14.62","3249060"
"1108","Paceřická","50.1196","14.611020000000002","3065090"
"1109","Nádraží Libeň","50.102109999999996","14.502189999999999","1312700"
"1111","Praha-Libeň","50.10079","14.501660000000001","1312960"
"1116","Do Čertous","50.122690000000006","14.61095","3249060"
"1117","Sezemická","50.12441","14.61905","3249060"
"1118","Mořina,Trněný Újezd","49.97195","14.21981","1683270"
"1120","Davle,Sázava","49.8856","14.397070000000001","0248300"
"1122","Davle,Sázava,Třešňovka","49.88491","14.4025","0248300"
"1124","Petrov","49.88708","14.43191","1197501"
"1126","Petrov,Chlomek","49.88832","14.413789999999999","1197410"
"1128","Petrov,Ve Vilách","49.889109999999995","14.42201","1197501"
"113","Hornocholupická","49.99747","14.425170000000001","1284900"
"1130","Petrov,Bohuliby","49.88558","14.47066","0887490"
"1140","Hloubětín","50.10669","14.536389999999999","1310590"
"1141","Poděbradská ul., BUS Letňany","50.10642","14.537239999999999","1310590"
"1142","TRAM Palmovka","50.10624","14.53757","1310590"
"1143","TRAM Lehovec","50.10617","14.53761","1310590"
"1144","BUS Kyje, Černý Most","50.106","14.53778","1312370"
"1146","Sídliště Hloubětín","50.10645","14.53793","1310590"
"1147","Mochovská ul.","50.10669","14.53767","1310590"
"115","Mirovická","50.131440000000005","14.452779999999999","1304780"
"1155","Petrov,Bohuliby,Obora","49.89128","14.45475","1197250"
"1157","Petrov,U Ručiček","49.8882","14.44188","1197501"
"1159","Tuchoměřice,Štěrbův Mlýn","50.13544","14.301820000000001","1713440"
"1160","Tuchoměřice,Rozc.","50.12424","14.26958","1713520"
"1163","Tuchoměřice,Špejchar","50.13627","14.27369","1713520"
"1164","Průhonice,Rozkoš","49.99995","14.531820000000002","1339810"
"1166","Průhonice,Tovární","49.99783","14.54911","1339650"
"1168","Podnikatelská","50.08704","14.61735","3173650"
"117","Morseova","50.03515","14.55884","1326160"
"1170","Kodymova","50.05148","14.33734","3058630"
"1171","Lnářská","50.02825","14.59796","1734280"
"1175","Průhonice,Hole","50.00047","14.5539","1339730"
"1177","Průhonice","50.00163","14.56105","1339730"
"1179","Čestlice,V Oblouku","50.006159999999994","14.571710000000001","3245580"
"1181","Čestlice,Albert hypermarket","50.00465","14.57444","3245580"
"1183","Čestlice","50.001870000000004","14.583670000000001","0234420"
"1186","Čestlice,Asbis","50.00013","14.57741","3245580"
"1188","Čestlice,Rehau","49.99686","14.582070000000002","3245580"
"119","Janovská","50.04052","14.5668","1325940"
"1190","Vlastibořská","50.1203","14.59881","3064950"
"1191","Hejtmanská","50.10539","14.55703","1316790"
"1193","Kladno,Central","50.14285","14.10184","0650640"
"1195","Sedlecký přívoz","50.1337","14.39303","1300440"
"1196","Sedlec","50.134679999999996","14.3919","1300440"
"1198","Praha-Sedlec","50.13205","14.3943","1300440"
"1199","Čestlice,Polní","50.00342","14.579820000000002","0234420"
"12","Mladá Boleslav hl.n. kolej č.5c","50.40826","14.89456","0966440"
"1201","Čerčany","49.8508","14.70175","0196660"
"1202","Benešov u Prahy","49.7795","14.68283","0022410"
"1203","Benešov,aut.st.","49.77852","14.68796","0022320"
"1207","Rájecká","50.02494","14.60195","1734280"
"121","Obchodní centrum Štěrboholy","50.07224","14.543","1325190"
"1211","Hostivice,Průmyslová","50.07907","14.26864","3267210"
"1213","Černická","50.08015","14.50598","1319620"
"1214","Terezínská","50.12737","14.50066","3059950"
"1215","Hellichova","50.08566","14.40417","1270940"
"1217","Svatoňovická","50.083729999999996","14.574279999999998","3174030"
"1219","Mrač,Obec","49.830220000000004","14.6904","1000050"
"1220","U Bílého Mlýnku","50.15627","14.52762","1314820"
"1222","K Letňanům","50.14351","14.484070000000001","1306210"
"1224","Poliklinika Frýdecká","50.13881","14.508729999999998","3063980"
"1226","Šumperská","50.13592","14.50906","3063980"
"1228","Třinecká","50.134370000000004","14.50983","3063980"
"123","Okořská","50.135909999999996","14.431479999999999","1303970"
"1230","Příborská","50.13146","14.51094","3063980"
"1232","K Drsnici","50.14268","14.38461","1300280"
"1233","K Horoměřicům","50.13248","14.368520000000002","1299680"
"1235","Hercovka","50.12207","14.451220000000001","1306990"
"1237","Balkán","50.0954","14.496260000000001","1317840"
"1239","Libušín,Černá zem","50.17317","14.05613","0835850"
"124","Sídliště Rohožník","50.07262","14.68155","3173310"
"1241","Kabešova","50.10246","14.508270000000001","1312610"
"1245","Vyskočilova","50.04847","14.458079999999999","1277520"
"1248","Za Skalkou","50.04575","14.419220000000001","1278920"
"1250","Na Formance","50.01657","14.53093","3161050"
"1254","U Mezníku","50.05108","14.62319","1733980"
"1258","K Austisu","50.02118","14.34114","3062150"
"1259","Diskařská","50.07909","14.382760000000001","1295690"
"1261","Mariánské náměstí","50.08733","14.41736","1269930"
"1263","Truhlářská","50.089459999999995","14.428679999999998","1270350"
"1264","Hládkov","50.09068","14.385539999999999","1295510"
"1268","Hradební","50.09075","14.42714","1270190"
"127","Živcová","49.9908","14.368360000000001","1386220"
"1270","Sicherova","50.11505","14.56112","1316610"
"1272","Za Kapličkou","50.12793","14.57262","1461370"
"1273","Netřebická","50.1293","14.572820000000002","1461370"
"1274","Český Brod,Na Bulánce","50.07185","14.85604","0227560"
"1277","Český Brod,Sídliště","50.069990000000004","14.85276","0227560"
"1279","Český Brod,Zahrady","50.05784","14.846829999999999","1713870"
"128","Rektorská","50.08755","14.5068","1324540"
"1281","Vrátkov","50.04951","14.83855","1671850"
"1283","Hlavní","50.04623","14.487620000000001","1282010"
"1286","Tismice","50.057359999999996","14.82065","1671770"
"1288","Tismice,MŠ","50.05637","14.81734","1671770"
"1290","Mrzky","50.04603","14.8097","1671690"
"1292","Doubravčice,bytovky","50.023109999999996","14.79571","0312080"
"1294","Masojedy","50.02617","14.77794","0312160"
"1296","Hradešín","50.0379","14.75983","1362800"
"1298","Hradešín,sklady Marca","50.04152","14.762020000000001","1362981"
"13","Neratovice výhybka č. 104","50.26205","14.522620000000002","1036080"
"130","Sídliště Barrandov","50.0315","14.368479999999998","3165210"
"1300","Přišimasy,Horka","50.048970000000004","14.76428","1362982"
"1302","Přišimasy","50.05171","14.76074","1362981"
"1304","Škvorec,rozc.","50.044940000000004","14.73978","1627360"
"132","Poliklinika Háje","50.033770000000004","14.5273","1282360"
"134","Kazínská","50.01167","14.38635","1292160"
"1340","Hlavní nádraží","50.08351","14.43414","1270510"
"1341","Václavské nám., Státní opera","50.08318","14.433520000000001","1270510"
"1342","Historická budova nádraží","50.08352","14.435410000000001","3057820"
"1344","Parking Wilsonova, BUS","50.08338","14.434629999999999","1270510"
"1346","Masarykovo nádr., Hybernská ul., TRAM","50.08406","14.43416","1270510"
"1347","Nástupiště (sever)","50.0836","14.43585","3057820"
"1348","Nástupiště / platforms","50.08314","14.4355","3057820"
"1349","Nástupiště (jih)","50.08266","14.43515","3057820"
"135","Českobrodská","50.091809999999995","14.532960000000001","3171520"
"1354","Praha hl.n.","50.0831","14.43619","1272130"
"1358","Starý Vestec","50.1446","14.847610000000001","1552330"
"136","Zátišská","50.016690000000004","14.41115","1286190"
"1362","Velenka","50.13908","14.89714","1777840"
"1365","Hradištko,Kersko,Hl.sil.","50.13797","14.90557","0475200"
"1368","Sadská,Kaple","50.13355","14.9691","1459210"
"1370","Sadská","50.13324","14.98618","1459210"
"1372","Sadská,Husova","50.13728","14.98509","1459210"
"1373","Hradištko,Kersko,U Pramene","50.15416","14.910020000000001","0475200"
"1375","Hradištko,Kersko,Branaldova","50.16097","14.912220000000001","0475200"
"1377","Hradištko,Chaty","50.16179","14.927220000000002","0475110"
"1379","Hradištko","50.16617","14.93666","0475110"
"138","Za Nadjezdem","50.056779999999996","14.548589999999999","1318220"
"1381","Hlohová","50.05643","14.502","1318900"
"1383","Sadská,Mrsolská cesta","50.14997","14.9647","1459210"
"1385","Sadská,Hotel Modrá Hvězda","50.1451","14.981029999999999","1459210"
"1387","Pečky,Žel.st.","50.09032","15.0284","1188260"
"1390","Pečky","50.08984","15.027289999999999","1188260"
"1391","Pečky,Palackého","50.08852","15.029679999999999","1188260"
"1393","Pečky,Tona","50.09336","15.0272","1188260"
"1396","Pečky,Velké Chvalovice","50.09792","15.01426","1788450"
"1398","Milčice,křiž.","50.10448","14.99254","0945360"
"14","Rokycany","49.74","13.59245","1407240"
"1400","Tatce","50.09175","14.97591","1651740"
"1401","Hořany","50.09763","14.94564","0450040"
"1402","Poříčany,Prodejna","50.10585","14.91792","1259890"
"1404","Starý Hloubětín","50.10435","14.529910000000001","3182720"
"1410","Poříčany,Žel.st.","50.11074","14.92208","1259890"
"1411","Poříčany","50.1112","14.922279999999999","1259890"
"1412","Semice","50.163909999999994","14.8757","1472140"
"1415","Semice,Školka","50.16405","14.869370000000002","1472140"
"1417","Semice,Křiž.","50.16578","14.857520000000001","1472140"
"1419","Poříčany,U Hroudů","50.10933","14.91681","1259890"
"142","U Kestřánků","49.98693","14.356810000000001","1386220"
"1421","Chrást,Host.","50.12099","14.89495","0537410"
"1423","Chrást","50.11762","14.90195","0537410"
"1425","Hradištko,Kersko,Hrabalova","50.158809999999995","14.902729999999998","0475200"
"1427","Borek","50.22123","14.65363","0809340"
"1429","Mladějovská","50.13255","14.56035","1316520"
"1431","Lhota","50.242709999999995","14.65625","0809340"
"1433","Křenek","50.23117","14.62914","0758090"
"1434","Křenek,Rozc.","50.24037","14.63611","3245740"
"1435","Dřísy","50.25632","14.644620000000002","0331110"
"1437","Dřísy,U Vily","50.25179","14.643920000000001","0331110"
"1439","Dřísy,Žel.st.","50.2438","14.636079999999998","3245740"
"144","Zadní Jiviny","50.077040000000004","14.298639999999999","1297210"
"1442","Konětopy","50.27467","14.655610000000001","0690510"
"1446","Hlavenec","50.23787","14.700920000000002","0389620"
"1448","Hlavenec,U 4 kamenů křiž.","50.22688","14.7172","0389620"
"145","Amforová","50.04185","14.327279999999998","3062310"
"1450","Nádraží Hlubočepy","50.04103","14.39378","1288300"
"1452","Praha-Hlubočepy","50.0407","14.39386","1288300"
"1453","Kostelní Hlavno,U Kostela","50.25819","14.69771","0705130"
"1455","Kostelní Hlavno,U Pomníku","50.25732","14.699370000000002","0705130"
"1457","Sudovo Hlavno","50.26254","14.685229999999999","1588950"
"1459","Mečeříž","50.29006","14.73625","0923980"
"1460","Suchdol,Vysoká,rozc.1.2","49.951409999999996","15.181470000000001","1590850"
"1462","Miskovice","49.94645","15.20744","0959911"
"1464","Miskovice,Přítoky","49.947590000000005","15.237860000000001","0960080"
"1466","Mnetěš","50.3599","14.27607","0973900"
"1467","Praha-Holyně","50.03284","14.34855","3167920"
"1468","Hlubočepy","50.04298","14.4044","1291010"
"1476","Praha-Žvahov","50.04568","14.402429999999999","1288300"
"1477","Vinařice,Na Horce","50.17649","14.097560000000001","1822730"
"1478","Praha-Cibulka","50.06458","14.36217","1287670"
"1479","Praha-Stodůlky","50.06221","14.346110000000001","1289020"
"1480","Hovorčovice","50.18184","14.51675","0463880"
"1482","Milčice","50.10657","14.99264","0945360"
"1484","Sadská,Prokopova","50.12894","14.98453","1459210"
"1486","Milovice,Armádní","50.22925","14.86868","3185070"
"1488","Milovice,Balonka","50.22964","14.89269","0951920"
"149","Dostihová","50.01253","14.39391","1292160"
"1491","Holečkova","50.074220000000004","14.39497","1287910"
"1493","Milovice,Benátecká Vrutice","50.23033","14.837470000000001","0020620"
"1495","Milovice,Radnice","50.22847","14.87514","0962880"
"1497","Milovice,Sportovní","50.23052","14.865160000000001","3185070"
"1498","Milovice,Škola","50.228629999999995","14.88613","0951920"
"15","Beroun seřaďovací nádraží","49.95131","14.058420000000002","0030000"
"1500","Milovice,Telecom","50.22948","14.86289","3185070"
"1502","Milovice,žel.st.","50.22914","14.882229999999998","0951920"
"1504","Milovice","50.22895","14.88156","0951920"
"1505","Kostelní Lhota,U Kovárny","50.12959","15.02285","0705210"
"1507","Kostelní Lhota","50.12966","15.030529999999999","0705210"
"1509","Horoušany,Horoušánky","50.09963","14.71245","0447920"
"1511","Holyně","50.02978","14.35716","1505760"
"1513","Baně","49.95258","14.37909","3166100"
"1516","Šestajovice,Za Stodolami","50.113009999999996","14.67997","1623880"
"1518","Dolní Břežany,Na kopečku","49.96908","14.46204","0287970"
"1520","Dolní Břežany,Náměstí","49.96452","14.45921","0287970"
"1522","Dolní Břežany,Obecní úřad","49.96329","14.45558","0287970"
"1525","Dolní Břežany,Lhota","49.956179999999996","14.432839999999999","0288010"
"1527","Ohrobec,U Čisteckých","49.94768","14.43392","1093550"
"1529","Ohrobec","49.943740000000005","14.431220000000001","1093550"
"153","Poliklinika Barrandov","50.03405","14.37455","1291270"
"1531","Ohrobec,Károv","49.94742","14.419939999999999","1093470"
"1533","Dolní Břežany,Zálepy","49.94843","14.41138","0288190"
"1534","Weberova","50.0735","14.3555","1289700"
"1536","Dolní Břežany,Na Rovném","49.95832","14.44939","0287970"
"1538","Dolní Břežany,Hřiště","49.96115","14.452370000000002","0287970"
"1540","Ohrobec,U Rybníka","49.94252","14.431479999999999","1093550"
"1542","Zvole","49.93346","14.42276","1940510"
"1544","Zvole,Černíky","49.92075","14.41946","1940340"
"1546","Březová-Oleško,Březová","49.915","14.41559","1940260"
"1548","Březová-Oleško,U Topolů","49.90818","14.413120000000001","1940420"
"1550","Březová-Oleško,Oleško","49.902029999999996","14.41055","1940420"
"1552","Vrané n.Vlt.,Škola","49.936659999999996","14.37815","1853110"
"1554","Zvole,Škola","49.934470000000005","14.4185","1940510"
"1556","Horčičkova","50.032","14.53442","3060610"
"1560","Okrouhlo","49.91883","14.44754","1097110"
"1562","Okrouhlo,Zahořany","49.90947","14.45915","1097200"
"1564","Vestec,Safina","49.98545","14.494079999999999","1810210"
"1566","Dolní Břežany,Na Spálence","49.96621","14.44224","0287970"
"1568","Dolní Břežany,Škola","49.96613","14.4608","0287970"
"1570","Zlatníky-Hodkovice,Břežanská","49.97025","14.483179999999999","1932160"
"1572","Zlatníky-Hodkovice,Slunečná","49.9664","14.482129999999998","1932160"
"1574","Zlatníky-Hodkovice,U Prodejny","49.96246","14.4811","1932241"
"1575","Zlatníky-Hodkovice,Náves","49.95975","14.48059","1932241"
"1577","Zlatníky-Hodkovice,U Hasičárny","49.957229999999996","14.480410000000001","1932241"
"1579","Horky","50.06145","14.446629999999999","1281980"
"1581","Libeř,Libeň,Oáza","49.95148","14.474470000000002","0825540"
"1583","Jesenice,Horní Jirčany","49.95198","14.537770000000002","0586020"
"1585","Jesenice,Horní Jirčany,Vodárna","49.94628","14.54305","0586020"
"1587","Sulice,Hlubočinka,Obchodní centrum","49.93895","14.553270000000001","3209010"
"159","Lukavecká","50.11603","14.617320000000001","0437700"
"1590","Sulice,Hlubočinka","49.93394","14.55921","3209010"
"1592","Sulice,Na Křížkách","49.92634","14.5695","1594331"
"1596","Sulice,Želivec","49.9157","14.581920000000002","1594410"
"1600","Jirny,DHL","50.1219","14.68619","3246040"
"1601","Kamenice,Nová Hospoda","49.91044","14.583979999999999","0624560"
"1603","Kamenice,Olešovice","49.90468","14.590639999999999","0624641"
"1605","Horní cesta","50.03327","14.39645","1291510"
"1606","Kamenice,Valnovka","49.89741","14.60578","0625110"
"1608","Kamenice,Ládví","49.89454","14.613470000000001","0624480"
"1610","Kamenice,Kuklík","49.89083","14.62299","0624480"
"1612","Řehenice,Babice","49.8807","14.623439999999999","1449320"
"1614","Řehenice,Křiváček","49.866929999999996","14.643820000000002","1449670"
"1616","Nespeky,Rozc.Pyšely","49.86538","14.656670000000002","1037722"
"1618","Nespeky","49.85842","14.660260000000001","1037722"
"1620","Pyšely,Hotel Doly","49.86681","14.66039","1037722"
"1622","Pyšely,Sokolovna","49.875029999999995","14.67844","1370570"
"1624","Pyšely,Nám.","49.87708","14.67809","1370570"
"1626","Boloňská","50.04718","14.5557","1325860"
"163","Dědinova","50.03375","14.48368","1282950"
"1630","Pyšely,Zaječice","49.89517","14.682120000000001","1370730"
"1632","Senohraby,Odb.","49.89515","14.713320000000001","1475080"
"1634","Senohraby,U Zvoničky","49.89528","14.718129999999999","1475080"
"1636","Pyšely","49.86088","14.69776","0196820"
"1637","Senohraby,Žel.st.","49.89711","14.728010000000001","1475080"
"1638","Senohraby","49.89703","14.72771","1475080"
"1639","Pětihosty","49.88573","14.704410000000001","1474940"
"1641","Pyšely,Nová Ves","49.881009999999996","14.68612","1370490"
"1643","Nehvizdy,U Studánky","50.13234","14.737729999999999","1024070"
"1645","Na Kovárně","50.11782","14.628020000000001","0437700"
"1647","Kamenice,Štiřín","49.91625","14.60092","0624990"
"1649","Kamenice,Všedobrovice","49.9173","14.610320000000002","0625290"
"165","V Nových domcích","50.05643","14.53413","1318310"
"1651","Petříkov,rozc.","49.920809999999996","14.62176","1204130"
"1653","Petříkov","49.926840000000006","14.61542","1204130"
"1655","Kamenice,Kult.dům","49.90401","14.58675","0624641"
"1656","Kamenice,U Dvora","49.89969","14.58099","0624211"
"1658","Kamenice,Těptín,U Kozlího kamene","49.89658","14.56814","0625020"
"1660","Kamenice,Těptín","49.89244","14.564639999999999","0625020"
"1662","Pohoří,Markvart","49.892109999999995","14.550670000000002","1249150"
"1664","Pohoří,Skalsko","49.893190000000004","14.539629999999999","1249150"
"1666","Průchova","50.06239","14.36597","1286600"
"1668","Pohoří","49.90058","14.525","1249070"
"1671","Pohoří,Chotouň","49.90038","14.51164","1248930"
"1673","Jílové u Prahy,Čs.armády","49.89533","14.498489999999999","0600970"
"1675","Kostelec u Křížků","49.9069","14.558179999999998","0703010"
"1677","Kamenice,Skuheř","49.9018","14.56947","0624720"
"1679","Dolní Břežany,Nad Mlýnem","49.9654","14.448120000000001","0287970"
"1681","Kladno,U Hřbitovů","50.15238","14.10559","0651450"
"1683","Sulice","49.92368","14.557229999999999","1594331"
"1685","Křížkový Újezdec","49.93103","14.58504","0765540"
"169","Za Tratí","50.167159999999996","14.51901","1315040"
"1696","Bořislavka","50.09834","14.362829999999999","1292590"
"1697","Sídliště Červený Vrch, Arabská ul.","50.09854","14.3622","1292670"
"1698","Horoměřická ul., TRAM Dejvice","50.09854","14.36439","1292590"
"1700","Sídliště Červený Vrch, Evropská ul.","50.0982","14.3621","1292590"
"1701","Sídliště Červený Vrch, Africká ul.","50.09819","14.36217","1292590"
"1702","Horoměřická ul., Evropská ul.","50.09838","14.36456","1292590"
"1703","Horoměřická ul., ul. Liberijská","50.09815","14.36476","1292590"
"1704","Horoměřická ul., BUS Hanspaulka","50.098729999999996","14.36452","1292670"
"1705","Horoměřická ul., TRAM Červený Vrch","50.09863","14.36452","1292670"
"171","Platónova","49.99863","14.41663","1285710"
"1717","Křížkový Újezdec,Čenětice","49.943290000000005","14.579170000000001","0765460"
"1719","Radějovice,Olešky","49.94913","14.57146","1374720"
"1721","Radějovice","49.9468","14.56456","1374810"
"1723","Kostelec u Křížků,Škola","49.90965","14.56347","0703010"
"1725","Cholupice","49.9869","14.445479999999998","0523960"
"1729","Strančice,Všechromy,náves","49.94897","14.6509","1870970"
"173","Petržílova","49.99912","14.423729999999999","1284810"
"1731","Jílové u Prahy,Kamenná Vrata","49.899609999999996","14.46839","3267980"
"1733","Jílové u Prahy,Luka p.Medníkem,Nádraží","49.86627","14.46212","0887570"
"1734","Luka pod Medníkem","49.86492","14.462629999999999","0887570"
"1735","Týnec n.Sáz.,Čakovice","49.86998","14.59319","1449590"
"1737","Týnec n.Sáz.,Čisté potoky","49.85998","14.584370000000002","1449590"
"1739","Hostavice","50.09022","14.563479999999998","1317090"
"1741","Týnec n.Sáz.,Zbořený Kostelec,Hrad","49.85349","14.58908","0743651"
"1743","Hrazanská","49.977579999999996","14.43951","3163000"
"1747","Mrač","49.83109","14.698129999999999","1000050"
"1748","Týnec n.Sáz.,Žel.st.","49.83419","14.592479999999998","1723910"
"175","Pavelkova","50.0","14.427929999999998","3298350"
"1751","Týnec nad Sázavou","49.83415","14.592970000000001","1723910"
"1753","Krhanice","49.85644","14.55773","0743652"
"1754","Čtyřkoly","49.86867","14.71437","0243330"
"1755","Řehenice,Dařbože","49.87218","14.61074","3263560"
"1757","Velké Popovice,pivovar","49.92176","14.6344","1793450"
"1759","Velké Popovice","49.92143","14.6445","1793450"
"1761","Benice","50.01357","14.60498","0025850"
"1765","Baterie","50.09239","14.369829999999999","1293050"
"1767","Velké Popovice,Todice","49.92205","14.64896","1793450"
"1769","Lety","49.921009999999995","14.2511","0807640"
"177","Pod Vsí","50.01127","14.514320000000001","1621320"
"1771","Šestajovice,Pražská","50.10235","14.67576","1623880"
"1773","Šestajovice,U Školy","50.11189","14.68246","1623880"
"1775","Jirny,Zámek","50.1148","14.69103","3245910"
"1777","Jirny","50.11587","14.698310000000001","0609250"
"1779","Jirny,Nové Jirny,I","50.10365","14.709000000000001","0609330"
"1781","Jirny,Nové Jirny,II","50.101440000000004","14.711210000000001","0609330"
"1783","Úvaly,Elektromechanika","50.079409999999996","14.71256","3078230"
"1785","Hostivařské náměstí","50.05012","14.5263","1320550"
"1787","Úvaly,Žel.st.","50.07438","14.722729999999999","3078230"
"1791","Úvaly","50.07512","14.722529999999999","1757310"
"1792","Škvorec,MŠ","50.050509999999996","14.73174","1627360"
"1794","Šestajovice,Balkán","50.10581","14.680270000000002","1623880"
"1796","Černošice,U Vodárny","49.967040000000004","14.329889999999999","0203890"
"1798","Černošice,Škola","49.946909999999995","14.32659","0203710"
"1799","Černošice,Žel.zast.","49.95906","14.322020000000002","0203890"
"1802","Černošice","49.95962","14.323429999999998","0203890"
"1804","Černošice,Karlštejnská","49.956379999999996","14.31155","0203890"
"1806","Třebotov,Solopisky","49.96024","14.296920000000002","1703810"
"1808","Vonoklasy,chaty","49.95452","14.28563","1849770"
"181","Na Drahách","49.95915","14.38269","3166010"
"1810","Hostýnská","50.081070000000004","14.495529999999999","1324380"
"1812","Vonoklasy","49.95053","14.276729999999999","1849850"
"1814","Vonoklasy,samoobsluha","49.94732","14.27573","1849850"
"1816","Černošice,Centrum Vráž","49.9495","14.31376","0203970"
"1818","Černošice,Husova","49.949659999999994","14.31409","0203970"
"1819","Černošice,U Transformátoru","49.94737","14.307910000000001","0203970"
"1821","Dobřichovice,Randova","49.9358","14.28336","0278120"
"1823","Dobřichovice,Pod Vinicí","49.93115","14.275879999999999","0278120"
"1825","Dobřichovice,rozc.Karlík","49.92815","14.27178","0278120"
"1828","Karlík","49.937059999999995","14.26191","0278210"
"1831","Černošice,Na Ladech","49.942679999999996","14.31763","0203710"
"1832","Kosoř","49.986059999999995","14.327470000000002","0699730"
"1834","Čínská","50.10895","14.394670000000001","1300790"
"1838","Kosoř,Rozc.","49.977129999999995","14.329379999999999","0699730"
"1840","Třebotov,Pomník","49.97571","14.30499","1703990"
"1842","Třebotov,Sanatorium","49.97475","14.297260000000001","1703990"
"1844","Zderazská","49.980709999999995","14.34804","3061930"
"1846","Třebotov","49.973240000000004","14.289629999999999","1703990"
"1848","Choteč","49.98539","14.28341","0529810"
"185","Drinopol","50.083909999999996","14.37067","1295930"
"1850","Roblín,Kuchařík","49.97744","14.249260000000001","0769450"
"1852","Vysoký Újezd,Kuchař,I","49.98194","14.23606","0769450"
"1854","Vysoký Újezd,Kuchař,II","49.982009999999995","14.23585","0769450"
"1856","Mořina,Trněný Újezd,Rozc.I","49.9699","14.21774","1683270"
"1858","Roblín","49.9618","14.24811","1401980"
"1871","Hradčanská","50.09744","14.40316","1295340"
"1872","Pražský hrad","50.097","14.404420000000002","3059280"
"1873","ul. Badeniho","50.09717","14.40536","3059280"
"1874","TRAM Holešovice, centrum, Letná","50.097120000000004","14.40412","1295340"
"1875","TRAM Petřiny, Střešovice, Břevnov","50.09726","14.404060000000001","1295340"
"1876","BUS, Dálková doprava","50.0974","14.403960000000001","1295340"
"1877","ul. Milady Horákové","50.09751","14.40455","1295340"
"1879","Praha-Dejvice, BUS Hanspaulka","50.09785","14.404110000000001","1295340"
"1885","Praha-Dejvice","50.09698","14.399679999999998","1295340"
"1889","Třebotov,Kala","49.96359","14.28155","1703720"
"1891","Třebotov,Solopisky,ZD","49.96174","14.29275","1703810"
"1893","Třebotov,Škola","49.97368","14.291970000000001","1703990"
"1894","Chrášťany,Scania-Label","50.05062","14.271970000000001","0540110"
"1896","Chrášťany,Mezcestí","50.04179","14.252429999999999","0540110"
"1898","Rudná,U Nádraží","50.03853","14.2437","1433160"
"1900","Rudná u Prahy","50.03945","14.24269","1433160"
"1901","Rudná,Dušníky","50.03714","14.24001","1433160"
"1903","Rudná,U Kina","50.03434","14.23267","1433160"
"1905","Rudná,Zdrav.stř.","50.032340000000005","14.231520000000002","1433160"
"1907","Rudná,Škola","50.029959999999996","14.22095","1433240"
"1909","Rudná,Hořelice","50.02694","14.21236","1433240"
"1911","Hrnčíře","49.99686","14.51764","1621240"
"1913","Nučice,Nádraží","50.02422","14.22476","1080730"
"1915","Nučice","50.02398","14.224979999999999","1080730"
"1916","Nučice,Pod Vinicí","50.02017","14.23047","1080650"
"1918","Nučice,Prokopská náves","50.01682","14.232000000000001","1080650"
"1920","Nučice,Sokolská","50.01566","14.22398","1080570"
"1922","Nučice,Na Krahulově","50.01533","14.217270000000001","1080570"
"1924","Nučice,Žel.zast.","50.01429","14.21328","1080570"
"1926","Nučice zast.","50.01514","14.212729999999999","1080570"
"1927","Mezouň","50.00459","14.21408","0938660"
"1929","Vysoký Újezd,sokolovna","49.99514","14.20568","1884410"
"1931","Vysoký Újezd","49.99243","14.206370000000001","1884410"
"1933","Lužce","49.98377","14.195210000000001","0892490"
"1935","Hrnčířský hřbitov","50.00166","14.515999999999998","1621240"
"1940","Vysoký Újezd,Kozolupy","49.97461","14.19273","0719600"
"1942","Bubovice","49.9703","14.16726","0151300"
"1944","Mořina,Odb.lom","49.96053","14.205129999999999","0993092"
"1946","Mořina,U Pěchotů","49.9525","14.217429999999998","0993092"
"1948","Mořina,Obecní úřad","49.95277","14.212729999999999","0993092"
"1950","Mořinka","49.93857","14.2355","0993250"
"1952","Dobříč","50.02095","14.257639999999999","0277660"
"1954","Tachlovice,Jakubská náves","50.01102","14.24322","1648280"
"1956","Tachlovice,Na vrškách","50.014379999999996","14.240910000000001","1648280"
"1958","Nučice,Bytovky","50.01998","14.23559","1080650"
"1960","Toulcův dvůr","50.04785","14.519079999999999","1320630"
"1962","Svrkyně","50.17156","14.29623","1616080"
"1964","Přezletice,Kocanda","50.15976","14.573479999999998","1353050"
"1965","Přezletice,U Rybníka","50.15494","14.58109","1353050"
"1967","Lichoceves,Noutonice","50.16555","14.280529999999999","0838010"
"1969","Rudná,Za Panskou zahradou","50.02233","14.20689","3268440"
"1971","Drahelčice","50.031459999999996","14.203470000000001","0315340"
"1973","Úhonice,škola","50.04181","14.18658","1732400"
"1975","Úhonice","50.04502","14.185260000000001","1732400"
"1977","Ptice","50.051759999999994","14.17556","1366380"
"1979","Ptice,křiž.","50.05245","14.16746","1366380"
"198","Anděl","50.06995","14.403770000000002","1288130"
"1981","Ďáblický hřbitov","50.1374","14.47877","1308420"
"1985","Červený Újezd,rozc.","50.05917","14.166429999999998","1366380"
"1987","Červený Újezd,U Náprstků","50.065490000000004","14.165220000000001","0212020"
"1989","Červený Újezd","50.06909","14.165220000000001","0212020"
"199","Na Knížecí, Stroupežnického ul.","50.06875","14.403360000000001","1288130"
"1991","Svárov,škola","50.063759999999995","14.154729999999999","1598910"
"1993","Svárov","50.06264","14.151179999999998","1598910"
"1995","Svárov,Rymáň","50.06962","14.14369","1598830"
"1997","Unhošť,Nám.","50.08552","14.133779999999998","1744910"
"2","Louny předměstí","50.34336","13.76811","0875300"
"200","Na Knížecí, Za Ženskými domovy","50.068220000000004","14.403310000000001","1288130"
"2003","Velké Popovice,Brtnice","49.9126","14.635620000000001","1792810"
"2005","Velké Popovice,rozc.Krámský","49.90956","14.643579999999998","1792810"
"2007","Velké Popovice,Lojovice","49.89747","14.649429999999999","1793110"
"2009","Hřebenka","50.0751","14.39035","1290110"
"201","Na Knížecí, TRAM Laurová","50.06836","14.40419","1288210"
"2011","Velké Přílepy","50.160579999999996","14.31071","1793530"
"2013","Tursko","50.19113","14.320960000000001","1717510"
"2016","Holubice,Kozinec","50.19675","14.29509","0414670"
"2018","Holubice","50.20183","14.29336","0414590"
"202","Na Knížecí, BUS Křížová","50.068529999999996","14.40414","1288210"
"2020","Strančice,rozc.průmyslová zóna","49.94368","14.648060000000001","3247360"
"2022","Strančice,Všechromy","49.94832","14.65634","1870970"
"2024","Strančice,žel.st.","49.94931","14.67818","1560600"
"2026","Strančice","49.949529999999996","14.67815","1560600"
"2028","Kunice","49.93608","14.669329999999999","0772320"
"203","Na Knížecí, BUS Motol","50.068670000000004","14.404110000000001","1288210"
"2030","Kunice,Vidovice,zámek","49.92795","14.666529999999998","0772410"
"2032","Kunice,rozc.Vidovice","49.92031","14.66475","0772410"
"2034","Kunice,Vidovice,Bonavita","49.921279999999996","14.666920000000001","0772410"
"2036","Hříbková","50.0204","14.580470000000002","1734100"
"2038","Basilejské náměstí","50.08725","14.471570000000002","1273610"
"204","Anděl, TRAM Motol","50.07104","14.404179999999998","1288130"
"2040","Velké Popovice,škola","49.92264","14.639479999999999","1793450"
"2041","Velké Popovice,pošta","49.922270000000005","14.639579999999999","1793450"
"2043","K Chatám","49.94812","14.37535","1917610"
"2046","Jíloviště,Cukrák","49.93512","14.357079999999998","0601780"
"2048","Jíloviště,Hl.sil.","49.92903","14.34244","0601780"
"205","ul. Nádražní, ul. Bozděchova","50.07049","14.40466","1288130"
"2050","Jíloviště,Rozcestí Trnová","49.92001","14.336260000000001","0601780"
"2054","Klínec,Hl.sil.","49.90586","14.33141","0663460"
"2056","Líšnice,Hl.sil.","49.897909999999996","14.31882","0850490"
"2058","Řitka,Hl.sil.","49.89325","14.30475","0850570"
"2062","Mníšek p.Brdy,Závod (hl.sil.)","49.87203","14.26966","0976240"
"2063","Mníšek p.Brdy,Závod","49.87223","14.27101","0976240"
"2065","Mníšek p.Brdy,Náměstí","49.86647","14.26179","0976240"
"2067","Hulická","50.07777","14.66027","1737710"
"2072","Mníšek p.Brdy,Nad Špejcharem","49.860659999999996","14.25745","0976240"
"2074","Mníšek p.Brdy,U Šibence","49.85624","14.255220000000001","0976240"
"2076","Mníšek p.Brdy,Kaple","49.840990000000005","14.246670000000002","0976240"
"2079","Kytín,U Hřbitova","49.84726","14.225420000000002","0787510"
"2081","Kytín,Náves","49.849990000000005","14.218470000000002","0787510"
"2083","Mníšek p.Brdy,Sídliště","49.87069","14.25946","0976240"
"2085","Mníšek p.Brdy,U Hřiště","49.87082","14.26186","0976240"
"2087","Mníšek p.Brdy,Na Kvíkalce","49.87015","14.25056","0976240"
"2089","Mníšek p.Brdy,Stříbrná Lhota U Křížku","49.86572","14.2425","0976410"
"2091","Mníšek p.Brdy,Stříbrná Lhota","49.86405","14.23734","0976410"
"2093","Trnová,Domov Borová","49.91686","14.348629999999998","0601860"
"2095","Letecké muzeum","50.125820000000004","14.5357","1311810"
"2099","Trnová","49.9152","14.35764","0601860"
"2100","Klínec,U Hřiště","49.90528","14.33596","0663460"
"2102","Klínec","49.900859999999994","14.34278","0663460"
"2103","Líšnice,Spálený Mlýn","49.88682","14.3491","0248480"
"2105","Čisovice,Bojov,Žel.st.","49.87978","14.34852","0239310"
"2107","Bojov","49.880179999999996","14.348770000000002","0239310"
"2108","Čisovice,Bojov","49.87162","14.348379999999999","0239310"
"211","Na Knížecí","50.0692","14.40526","1288210"
"2110","Čisovice,Bojov,Višňovka","49.866859999999996","14.339260000000001","0239310"
"2112","Čisovice,U Školy","49.86438","14.321029999999999","0239490"
"2114","Čisovice","49.86358","14.31521","0239490"
"2116","Čisovice,Pod Horou","49.8635","14.3116","0239490"
"2118","Husinecká","50.08509","14.44449","1275820"
"2120","Mníšek p.Brdy,Čisovická","49.86779","14.27012","0976240"
"2122","Líšnice","49.889509999999994","14.32175","0850570"
"2124","Řitka","49.89468","14.2989","1458070"
"2126","Mníšek p.Brdy,ÚVR","49.88007","14.27544","0976240"
"2128","Mníšek p.Brdy,Žel.zast.Rymaně","49.858509999999995","14.279720000000001","0976320"
"2130","Rymaně","49.85771","14.28103","0976320"
"2131","Zahořany","49.850609999999996","14.287120000000002","0976590"
"2133","Mníšek p.Brdy,OPS Magdaléna","49.84597","14.267489999999999","3268100"
"2134","Nová Ves p.Pleší,Rozcestí k Nemocnici","49.83757","14.27795","1058210"
"2136","Nová Ves p.Pleší,Nemocnice","49.83402","14.28385","1058210"
"2138","Jíloviště","49.92778","14.342189999999999","0601780"
"2140","Hutě","50.10841","14.55851","1312110"
"2142","Středokluky","50.12519","14.255020000000002","1713520"
"2143","Úholičky,V Kopci","50.159240000000004","14.333829999999999","1732310"
"2144","Úholičky","50.16131","14.334710000000001","1732310"
"2145","Sychrov","50.12036","14.65821","3172410"
"2147","Čestlice,Lipová","49.99694","14.58494","3245580"
"2149","Beroun,U Černého koně","49.96559","14.072479999999999","0028790"
"2151","Beroun,Plzeňka","49.96021","14.06453","0028790"
"2153","Praha-Jinonice","50.05559","14.371970000000001","1286510"
"2154","Nádraží Jinonice","50.05643","14.37086","1286510"
"2156","Čisovice,Žel.st.","49.85771","14.31911","0239490"
"2159","Bojanovice,Rest.","49.85371","14.35244","0068660"
"2161","Bojanovice,Chaty","49.85812","14.35175","0068660"
"2163","Měchenice","49.90828","14.392570000000001","0927110"
"2165","Měchenice,Rozc.k Žel.st.","49.91215","14.38204","0927110"
"2166","Měchenice,Samoobsluha","49.908159999999995","14.389510000000001","0927110"
"2167","Měchenice,Žel.st.","49.91101","14.3842","0927110"
"2169","Bratřínov","49.84264","14.34036","0097250"
"2171","Hvozdnice,Chaty","49.8685","14.361579999999998","0503260"
"2173","Hvozdnice","49.87556","14.36539","0503260"
"2175","Davle,Sloup","49.88841","14.374529999999998","0248480"
"2177","Davle,Pod Račany","49.89134","14.38989","0248131"
"2179","Davle,U Pomníku","49.89236","14.400720000000002","0248131"
"2182","Davle,Na Javorce","49.89686","14.39969","0248131"
"2184","Davle,Obec","49.89001","14.3987","0248131"
"2186","Všestudy","50.28975","14.34167","1874530"
"2187","Všestudy,U Sušárny","50.300979999999996","14.33983","1874450"
"2189","Všestudy,Dušníky n.Vlt.","50.30982","14.33777","1874450"
"2191","Vojkovice,Dědibaby","50.31042","14.36185","1845010"
"2193","Hybšmanka","50.07795","14.38045","1290030"
"2195","Vojkovice,Křivousy","50.30721","14.371120000000001","1845190"
"2197","Vojkovice,Bukol","50.31435","14.39284","0157410"
"2199","Vojkovice,Bukol,Přívoz","50.31739","14.398370000000002","0157410"
"2201","Zálezlice,Kozárovice","50.311040000000006","14.42499","1906240"
"2203","Zálezlice","50.307590000000005","14.43785","1906321"
"2205","Zlosyň","50.27791","14.36638","1933560"
"2207","Vojkovice","50.296859999999995","14.377329999999999","1845270"
"2209","Hostín u Vojkovic","50.29611","14.3953","0457640"
"2211","Výzkumný ústav vodohospodářský","50.115559999999995","14.393279999999999","1300610"
"2215","Dřínov,U Kříže","50.27752","14.39577","0330810"
"2217","Dřínov,Náves","50.27365","14.39841","0330810"
"2218","Kladno,Rozdělov","50.14073","14.065479999999999","0649630"
"2220","Obříství,Dušníky","50.29725","14.469000000000001","1088211"
"2222","Obříství","50.29528","14.47768","1088212"
"2224","Obříství,Štěpánský most","50.28957","14.494679999999999","1088120"
"2228","Kly,Větrušice","50.30137","14.511370000000001","0667450"
"2232","Kly,Krausovna","50.308859999999996","14.51549","0667613"
"2234","Kly,Lom","50.31425","14.51498","0667614"
"2236","Kly,Vinice","50.32157","14.506129999999999","0667611"
"2238","Sídliště Zličín","50.06046","14.29297","1932670"
"2242","Mělník,U Nováků","50.33283","14.49695","0928860"
"2244","Mělník,Cukrovar","50.34036","14.49179","0928860"
"2246","Mělník,U Hřiště","50.34446","14.48634","0928350"
"2248","Mělník,Aut.st.","50.350190000000005","14.488570000000001","0928600"
"2258","Mělník,Podolí,Pivovar","50.353590000000004","14.48218","0928510"
"2260","Mělník,Podolí,Nem.","50.35788","14.474260000000001","0928510"
"2262","Mělník,Pšovka","50.362790000000004","14.46831","0929320"
"2264","Mělník,Záv.Loděnice","50.37107","14.465979999999998","0929670"
"2266","Mělník,Mlazice,Žel.zast.","50.37421","14.466779999999998","0929670"
"2268","Mělník-Mlazice","50.375170000000004","14.467789999999999","0929670"
"2269","Neratovice,Lobkovice,Hřbitov","50.25033","14.53165","1036670"
"2271","Lobkovice","50.25077","14.53082","1036670"
"2272","Vinořský hřbitov","50.145340000000004","14.5814","1823710"
"2278","Lehárova","50.00874","14.40629","1286190"
"2280","Kostelec n.L.,Jiřice","50.23337","14.556989999999999","0610341"
"2282","Jiřice","50.238820000000004","14.54669","0610341"
"2283","Kostelec n.L.,Záv.","50.22948","14.572220000000002","0701730"
"2285","Kostelec n.L.,U Váhy","50.22678","14.58419","0701730"
"2287","Záryby,Martinov","50.2129","14.6344","1910010"
"2289","Brázdim,Starý Brázdim","50.18237","14.5894","0097762"
"2291","Bořanovice","50.17723","14.48446","0080792"
"2293","Líbeznice,I","50.19055","14.49402","0826600"
"2295","Horoušany,Horoušánky,Náves","50.09875","14.72468","0447920"
"2297","Horoušany","50.10623","14.740979999999999","0448060"
"2299","Chmelnice","50.09256","14.48696","1274420"
"230","Ve Žlíbku","50.1104","14.624429999999998","3172250"
"2301","Horoušany,U Rybníka","50.108059999999995","14.7412","0448060"
"2302","Říčany,Podhradí","49.99145","14.65146","1454590"
"2304","Křenice","50.03195","14.668660000000001","0758170"
"2306","Říčany,Pacov","50.012640000000005","14.67436","1172000"
"2310","Březí,U křížku","50.01367","14.68994","0138890"
"2313","Říčany,Strašín","50.0032","14.702029999999999","1562300"
"2317","Březí,Podskalí","50.015370000000004","14.69723","0138890"
"2318","Babice","50.00786","14.714870000000001","0006040"
"2320","Babice,Babičky","50.00936","14.73039","0006040"
"2322","Doubek","50.01684","14.73717","0310380"
"2325","Chodovec","50.03953","14.49044","1282100"
"2327","Jenštejn","50.15307","14.61239","0584910"
"2329","Dřevčice","50.16679","14.62894","0329300"
"2331","Dřevčice,Cihelna","50.17152","14.638520000000002","0329300"
"2333","Brandýs n.L.-St.Bol.,Vrábí","50.17787","14.6538","0091050"
"2335","Brandýs n.L.-St.Bol.,Pekárny","50.17888","14.670060000000001","0091130"
"2337","Brandýs n.L.-St.Bol.,Pražská","50.183279999999996","14.65755","0090590"
"2339","Brandýs n.L.-St.Bol.,Nám.","50.18577","14.66034","0090410"
"234","Vrážská","49.98975","14.36955","1386220"
"2341","Brandýs n.L.-St.Bol.,U Brány","50.19488","14.67341","0091720"
"2343","Brandýs n.L.-St.Bol.,Aut.st.","50.19782","14.678510000000001","0092110"
"2347","Na Petynce","50.08862","14.380889999999999","1293050"
"2349","Brandýs n.L.-St.Bol.,Sídliště","50.20158","14.68578","0092020"
"2351","Brandýs n.L.-St.Bol.,Kasárna","50.2067","14.69295","3077850"
"2353","Brandýs n.L.-St.Bol.,Žel.st.","50.20967","14.691889999999999","3077850"
"2355","Stará Boleslav","50.209759999999996","14.6924","3077850"
"2356","Brandýs n.L.-St.Bol.,Škola","50.19689","14.68261","0092020"
"2358","Brandýs n.L.-St.Bol.,Sokolovská","50.19458","14.68927","0091990"
"236","Přístav Radotín","49.99438","14.39313","3165470"
"2360","Brandýs n.L.-St.Bol.,Vosí hnízdo","50.19392","14.70067","0092450"
"2362","Nový Vestec","50.183690000000006","14.72008","1080310"
"2364","Nový Vestec,U Mostu","50.18405","14.72906","1080310"
"2366","Káraný,Most","50.182559999999995","14.73218","1080220"
"2368","Chodovská","50.0569","14.468379999999998","1321950"
"2371","Káraný,Vodárna","50.17823","14.73219","1080220"
"2373","Káraný,Pošta","50.17476","14.736279999999999","1080220"
"2374","Nová Ves p.Pleší","49.83104","14.275210000000001","1058130"
"2376","Nová Ves pod Pleší","49.827329999999996","14.270179999999998","1058130"
"2377","Dobříš,Průmyslová zóna","49.79424","14.18963","0279520"
"2379","Velká Lečice","49.816309999999994","14.324370000000002","1784970"
"238","Braunova","50.06188","14.40254","1286940"
"2380","Malá Hraštice","49.807520000000004","14.27868","0900770"
"2382","Mníšek p.Brdy,Základní škola","49.86318","14.262939999999999","0976240"
"2383","Malá Hraštice,Velká Hraštice","49.80473","14.28077","0900850"
"2385","Mníšek p.Brdy,Pražská","49.86809","14.2665","0976240"
"2387","Mníšek p.Brdy,Rozcestí Kytín","49.83964","14.244420000000002","0976240"
"2389","Škola Radlice","50.059490000000004","14.393479999999998","1286430"
"2395","Dobříš,Žel.st.","49.78915","14.18433","0279520"
"2398","Dobříš","49.79","14.18312","0279520"
"240","Vlastina","50.09122","14.316429999999999","1297980"
"2400","Dobříš,nám.","49.78144","14.1704","0279280"
"2406","Dobřichovice,Pošta","49.92696","14.27465","0278120"
"2410","Dobřichovice,Nádraží","49.92714","14.288229999999999","0278390"
"2413","Dobřichovice","49.92747","14.287770000000002","0278390"
"2414","Všenory,Sportovní areál","49.92951","14.29999","1872750"
"2416","Všenory,U Kácovských","49.926809999999996","14.30335","1872750"
"2418","Všenory,U Křížků","49.92216","14.30534","1872750"
"242","Na Mlýnici","50.11422","14.320170000000001","1298610"
"2420","Černolice,Nový Dvůr","49.913070000000005","14.307789999999999","0203540"
"2422","Černolice","49.90935","14.298979999999998","0203540"
"2424","Kunice,Dolní Lomnice","49.914390000000004","14.682620000000002","0772160"
"2425","Točná","49.9728","14.4318","0524000"
"2429","Říčany,Kuří","49.98762","14.62023","0776400"
"2432","Mirošovice u Prahy","49.910309999999996","14.720170000000001","0954780"
"2433","Modletice","49.97071","14.59084","0276850"
"2435","Modletice,rozc.Doubravice","49.971379999999996","14.61457","3246710"
"2437","Modletice,rozc.","49.97002","14.597999999999999","0276850"
"2439","Modletice,V hůrce","49.97535","14.589879999999999","0276420"
"2441","Nupaky","49.99457","14.602620000000002","0234510"
"2443","Cholupický vrch","49.99415","14.43493","3160830"
"2445","Říčany,Štefánikova","49.99341","14.660639999999999","1454750"
"2449","Petříkov,Radimovice","49.93633","14.61705","1204211"
"2451","Popovičky,Chomutovice","49.9569","14.603420000000002","0276770"
"2453","Popovičky,Nebřenice","49.94313","14.61312","0276930"
"2455","Popovičky,rozc.","49.96176","14.6009","0277071"
"2457","Říčany,U Větrníku","50.001709999999996","14.662579999999998","1454910"
"2459","Říčany,Prům.zóna Zděbrady","49.96732","14.62084","3270770"
"246","Nádraží Krč","50.03548","14.443579999999999","1276800"
"2463","Říčany,Jažlovice","49.96382","14.63401","1455300"
"2469","Říčany,K Žel.st.","49.99899","14.668370000000001","1455130"
"2474","Říčany,Pivoňková","49.98962","14.67689","1454830"
"2478","Chotkovy sady","50.09551","14.408760000000001","1295420"
"248","Praha-Krč","50.03418","14.44597","1276550"
"2480","Kamenné Zboží","50.19344","15.00032","0628210"
"2481","Říčany,Nám.","49.991609999999994","14.65569","1454590"
"2484","Říčany,Masarykovo nám. - Na Růžku","49.99204","14.65787","1454750"
"2486","Říčany,U Nem.","49.99633","14.677010000000001","1455130"
"2488","Říčany,Park A.Švehly","49.99516","14.6599","1454750"
"249","Högerova","50.03455","14.3806","3164820"
"2490","Říčany,Pod Lihovarem","49.997240000000005","14.65886","1454590"
"2494","Říčany,Prům.areál Černokostelecká","50.00481","14.65688","3175860"
"2496","Říčany,Rychta","49.99442","14.68319","1454910"
"2498","Jizbice,Zavadilka","50.25597","14.98545","0614330"
"2500","Říčany,Spojovací ZŠ","49.99836","14.670279999999998","1455130"
"2503","Říčany,U Lípy","49.99015","14.64996","1454590"
"2507","Chvaly","50.11267","14.597220000000002","0437880"
"251","K Barrandovu","50.03548","14.383429999999999","3164820"
"2511","Říčany,U Milána","49.99375","14.658370000000001","1454590"
"2513","Říčany,U Podjezdu","50.00116","14.6623","1454910"
"2516","Říčany,Voděrádky","49.97748","14.63853","1455210"
"2520","Strančice,Otice","49.96398","14.645389999999999","1614620"
"2521","Říčany,Sídl.Olivovna","49.99126","14.68537","1454830"
"2525","Kladno,Rakovnická","50.136379999999996","14.059460000000001","0649630"
"2527","Herink","49.96756","14.575170000000002","0276690"
"2529","Říčany,Strašín,Rest.","49.9997","14.703660000000001","1562300"
"253","Jiviny","50.07778","14.30497","1297210"
"2533","Říčany,Wolkerova","49.99525","14.64972","1454590"
"2535","Říčany,Pod Kavčí Skálou","49.99112","14.674220000000002","1454830"
"2539","Kavkazská","50.06955","14.46602","1322920"
"2541","Bazar","50.09879","14.671629999999999","0654470"
"2545","Říčany,Komenského nám.","49.99196","14.66446","3011160"
"2549","Strančice,Kašovice","49.94453","14.63986","1342100"
"2551","Strančice,Předboř","49.94582","14.628079999999999","1342281"
"2552","Říčany,Marvánek","49.985490000000006","14.65514","1454750"
"2556","Zvole,Jílovská","49.93045","14.423739999999999","1940510"
"2558","Zvole,Nová Zvole","49.92405","14.42119","3269090"
"256","Chaplinovo náměstí","50.0353","14.37742","3164910"
"2560","Květnice,Za Mlýnem","50.06207","14.683929999999998","1477530"
"2562","Květnice,Na Ladech","50.06916","14.68925","3246390"
"2564","Mukařov,škola","49.9923","14.743979999999999","1003230"
"2566","Louňovice,I.hráz","49.98905","14.756079999999999","3246470"
"2575","I. P. Pavlova","50.074329999999996","14.43031","1271750"
"2581","I.P.Pavlova","50.074329999999996","14.430370000000002","1271750"
"2590","Louňovice","49.982690000000005","14.760539999999999","0873510"
"2591","Nespeky,Městečko","49.85135","14.675429999999999","1037640"
"2593","Květnice,Rozc.","50.05638","14.680639999999999","1477530"
"2595","Květnice","50.05699","14.684729999999998","1477530"
"2597","Libčice n.Vlt.,Chýnov","50.19448","14.353129999999998","0818170"
"2599","Smečno","50.188829999999996","14.04302","1508430"
"2602","Libčice n.Vlt.,Náměstí Svobody","50.19769","14.36418","0818330"
"2604","Jizbice,Hlavní silnice","50.25203","14.99438","0614250"
"2606","Kladno,Smečenská","50.14294","14.05817","0649630"
"2608","Kladno,Doberská","50.138059999999996","14.068610000000001","0649630"
"2610","Italská","50.07803","14.436520000000002","1272210"
"2612","Kly,Záboří","50.30834","14.52101","0667612"
"2613","Tuhaň,Červená Píska","50.29444","14.53559","1712550"
"2615","Tuhaň","50.295120000000004","14.516179999999999","1712630"
"2617","Nový Vestec,Na Pískách","50.18513","14.71393","1080310"
"2619","Brandýs n.L.-St.Bol.,Most","50.190090000000005","14.66789","3077770"
"2621","Říčany,Kuříčko","49.98799","14.63851","3078070"
"2624","Velké Přítočno","50.1174","14.12902","1793700"
"2626","Strančice,Svojšovice","49.95837","14.6564","1614710"
"2628","Světice","49.97078","14.66266","1603930"
"263","Nádraží Kyje","50.097359999999995","14.54294","1317410"
"2631","Říčany,Černokostelecká","50.00625","14.6537","1454670"
"2633","Poliklinika Zahradní Město","50.05658","14.497470000000002","1319030"
"2635","Jílové u Prahy,Luka p.Medníkem","49.87263","14.46705","0887570"
"2636","Jílové u Prahy,Studené,Obec","49.886759999999995","14.47655","0600890"
"2638","Jílové u Prahy,Studené,Závod","49.88316","14.481010000000001","0600890"
"2639","Jílové u Prahy,Hřbitov","49.89571","14.47834","3267980"
"2641","Pošta Újezd nad Lesy","50.07376","14.65528","1737710"
"2645","Jílové u Prahy,Borek","49.879090000000005","14.501129999999998","0601010"
"2647","Jílové u Prahy","49.877990000000004","14.500060000000001","0601010"
"2648","Jílové u Prahy,žst.","49.87709","14.50056","0601010"
"2649","Kamenný Přívoz,U Křížku","49.86678","14.503429999999998","0628711"
"265","Praha-Kyje","50.097559999999994","14.543170000000002","1316870"
"2651","Kamenný Přívoz","49.86226","14.50402","0628711"
"2653","Kamenný Přívoz,Žel.st.","49.85995","14.514560000000001","0628800"
"2656","Jahodnice","50.08744","14.558079999999999","1317250"
"2658","Krhanice,Prosečnice","49.86238","14.534579999999998","0743730"
"266","Špitálská","50.11112","14.504629999999999","1312880"
"2660","Prosečnice","49.86365","14.53299","0743730"
"2661","Brandýs n.L.-St.Bol.,Nádr.","50.183240000000005","14.65666","0090590"
"2665","Brandýs nad Labem","50.18346","14.65523","0090590"
"2666","Brandýs n.L.-St.Bol.,Sídl.u nádr.","50.18538","14.65214","0090590"
"2667","Brandýs n.L.-St.Bol.,V Olšinkách","50.18612","14.648579999999999","0090590"
"2669","Brandýs n.L.-St.Bol.,Neratovická","50.18874","14.64815","0090750"
"2670","Brandýs n.L.-St.Bol.,Dům peč.služby","50.1913","14.65582","0090750"
"2672","Brandýs n.L.-St.Bol.,Rychta","50.18858","14.6565","0090750"
"2674","Brandýs n.L.-St.Bol.,Nem.","50.188590000000005","14.65271","0090750"
"2676","Brandýs n.L.-St.Bol.,U Křížku","50.193459999999995","14.653179999999999","0090750"
"2678","Jalodvorská","50.01397","14.45713","3160240"
"268","Vozovna Hloubětín","50.10788","14.5284","1310670"
"2682","Brandýs n.L.-St.Bol.,Continental","50.17625","14.6585","0091130"
"2684","Dvory,Veleliby","50.21168","15.02154","0339100"
"2686","Bojanovice,Malá Lečice","49.8216","14.33663","0901070"
"2687","Bojanovice,Malá Lečice,U Hesů","49.82116","14.332970000000001","0901070"
"2689","Bojanovice,Senešnice","49.828520000000005","14.307960000000001","1474270"
"2690","Libiš,Obec","50.27717","14.500520000000002","1036240"
"2692","Říčany,Hřbitov","49.988640000000004","14.643920000000001","3078070"
"2695","Přezletice,Vinořská","50.1545","14.577279999999998","1353050"
"2697","Zlonín,Rozc.","50.21112","14.49899","0011210"
"2699","Předboj,Rozc.","50.22505","14.49511","1342010"
"270","Pánkova","50.01812","14.649429999999999","3175860"
"2701","Přeštická","50.04459","14.51232","1282100"
"2703","Kojetice,Tůmovka","50.2295","14.49469","0678570"
"2705","Brandýs n.L.-St.Bol.,Zdrav.stř.","50.182190000000006","14.65499","0091050"
"2707","Brandýs n.L.-St.Bol.,Popovice","50.17795","14.624979999999999","0092530"
"2709","Libiš,Na Staré štaci","50.26811","14.49596","1036240"
"2711","Libiš,Samoobsluha","50.27381","14.503","1036240"
"2713","Čachovice,Struhy,Hostinec","50.28419","14.939820000000001","1570910"
"2715","Chrášťany,Protherm","50.04742","14.26415","0540110"
"2717","Kněževes,Skladový areál","50.11806","14.26861","0668510"
"2719","Jankovcova","50.110170000000004","14.44488","1302810"
"272","Milevská","50.04861","14.430270000000002","1279060"
"2721","Kněževes,Stará hospoda","50.11853","14.26181","0668510"
"2723","Neratovice,III.ZŠ","50.25477","14.51211","1035940"
"2725","Libiš","50.27588","14.49593","1036240"
"2727","Brandýs n.L.-St.Bol.,U Soudu","50.18541","14.663960000000001","0091300"
"2729","Brandýs nad Labem-Zápská","50.183609999999994","14.664979999999998","0091210"
"273","Poliklinika Černý Most","50.10783","14.572379999999999","3064790"
"2730","Libiš,Aut.st.","50.265190000000004","14.510720000000001","1036240"
"2732","Úžice,Netřeba","50.26207","14.423720000000001","1040010"
"2734","Na Boleslavce","50.169340000000005","14.484060000000001","0141330"
"2736","Dobříš,Kodetka","49.799009999999996","14.195820000000001","3269680"
"2738","Kostelec n.Č.l.,Sanatorium","49.989740000000005","14.86395","0701650"
"2740","Kostelec n.Č.l.,Svatbínská","49.98335","14.87766","0752300"
"2743","Na Radosti","50.060520000000004","14.29897","3169200"
"2744","Oleška","49.97276","14.912629999999998","1101830"
"2747","Oleška,Krymlov","49.95749","14.92803","1101750"
"2748","Oleška,Rozc.Krymlov","49.96989","14.93269","1949560"
"275","Kapitána Stránského","50.103320000000004","14.576170000000001","3064870"
"2751","Ždánice","49.96706","14.957310000000001","1949560"
"2754","Ždánice,U Jánů","49.96667","14.963870000000002","1949560"
"2758","Prusice","49.96823","14.876679999999999","1081200"
"2762","Výžerky","49.94488","14.88328","1081380"
"2765","Konojedy","49.948570000000004","14.851289999999999","1080900"
"2767","Konojedy,Klíče","49.93882","14.858579999999998","3222960"
"2769","Korytná","50.0644","14.493720000000001","1319110"
"277","Ve Vilkách","50.01551","14.539629999999999","1739910"
"2771","Konojedy,Pila","49.94542","14.85304","1080900"
"2773","Oplany","49.92505","14.865960000000001","1081110"
"2775","Oplany,Háj.","49.924479999999996","14.881429999999998","1081380"
"2777","Výžerky,Rozc.","49.93078","14.89115","1080810"
"2779","Vlkančice,Komorce","49.92221","14.898229999999998","1081380"
"2781","Kozojedy","49.996340000000004","14.813889999999999","0718890"
"2783","Brandýs n.L.-St.Bol.,Baumit","50.17602","14.66535","0091130"
"2785","Újezd","50.08263","14.403479999999998","1271080"
"2787","Nebozízek","50.08225","14.39916","1271080"
"2789","Petřín","50.08198","14.396579999999998","1271160"
"2791","Jenerálka","50.10785","14.35384","1294450"
"2795","Belárie","50.01361","14.401879999999998","1286190"
"2799","Boletická","50.13273","14.5137","1314230"
"28","Letňany","50.12625","14.51641","1311720"
"2803","Praha-Kbely","50.13483","14.555810000000001","1316010"
"2804","Chocerady,Samechov","49.87948","14.84842","0520510"
"2805","Chocerady,Růženín,sídliště","49.88494","14.82704","0520430"
"2807","Chocerady,Vlkovec,žel.st.","49.874320000000004","14.81431","0520780"
"2809","Vlkovec","49.874829999999996","14.81432","0520780"
"281","Lázeňka","50.05922","14.586020000000001","0333320"
"2810","Struhařov","49.952259999999995","14.744620000000001","1570820"
"2812","Tehovec,Vojkov","49.98863","14.7123","1653280"
"2814","Tehovec,Mototechna","49.99002","14.7255","1653280"
"2816","Mukařov","49.98945","14.74056","1529510"
"2820","Rakovník,V Jamce","50.106609999999996","13.73037","1390920"
"2822","Jeřická","50.1081","14.609420000000002","0437880"
"2824","Louňovice,II.hráz","49.98837","14.76697","3246470"
"2827","Vyžlovka","49.987190000000005","14.78875","1890490"
"2831","Kozojedy,Rozc.","49.99179","14.81415","0718890"
"2833","Kostelec n.Č.l.,Na Skalce","49.99302","14.83911","0701650"
"2835","Kostelec n.Č.l.,Trativody","49.992779999999996","14.845479999999998","0701650"
"2837","Kostelec n.Č.l.,U Křížku","49.99184","14.853520000000001","0701650"
"2839","Kostelec n.Č.l.,Nám.","49.993970000000004","14.86007","0701650"
"2841","Vyžlovka,hotel Praha","49.984140000000004","14.78914","1890490"
"2843","Jevany,Spojovací","49.97506","14.79548","0593150"
"2845","Jevany","49.96945","14.80972","0593150"
"2849","Jezerka","50.05748","14.44307","1277360"
"285","Druhanická","50.07228","14.652829999999998","1737710"
"2851","Jevany,Penčice","49.9581","14.82102","0593150"
"2853","Konojedy,Rozc.","49.94661","14.83218","1080900"
"2855","Stříbrná Skalice,Hradec","49.92587","14.83017","1576600"
"2857","Stříbrná Skalice,Propast","49.92228","14.82893","1576600"
"2859","Stříbrná Skalice,Hruškov","49.90822","14.83336","1576940"
"2861","Stříbrná Skalice,Náměstí","49.89771","14.845989999999999","1576940"
"2863","Stříbrná Skalice,Blatiny","49.89768","14.854779999999998","1576940"
"2865","Stříbrná Skalice,U Konvalinků","49.891740000000006","14.860679999999999","1576940"
"2867","Stříbrná Skalice,Žel.st.","49.88722","14.85731","1576940"
"2869","Stříbrná Skalice","49.88355","14.857120000000002","0520510"
"287","Tálínská","50.10048","14.544629999999998","1312290"
"2870","Bakovská","50.13508","14.54981","1316100"
"2876","Vlkančice,Pyskočely","49.88058","14.861089999999999","1839380"
"2880","Sázava,osada Kopaniny","49.879020000000004","14.88301","1461610"
"2882","Sázava,Klášterní","49.87474","14.89603","1461610"
"2884","Sázava","49.87522","14.90629","1461960"
"2885","Sázava,Aut.st.","49.874790000000004","14.90741","1461960"
"2887","Mukařov,odb.Tehovec","49.988409999999995","14.73533","1529510"
"2889","Tehovec","49.981559999999995","14.72915","1653100"
"289","Doležalova","50.10192","14.57065","3064870"
"2891","Svojetice","49.97211","14.738339999999999","1611790"
"2893","Svojetice,Na vyhlídce","49.96331","14.744860000000001","1611790"
"2895","Struhařov,U hřiště","49.956579999999995","14.75048","1570820"
"2897","Struhařov,Habr","49.95377","14.75265","1570820"
"2899","Jindřišská","50.08508","14.43016","1270510"
"29","BUS Kbely, Vinoř","50.12486","14.51636","1311720"
"2901","Senovážné náměstí","50.085809999999995","14.432210000000001","1270510"
"2903","Ondřejov,Třemblat,Lipská","49.93678","14.757489999999999","1706150"
"2905","Ondřejov,Třemblat","49.9282","14.7629","1706150"
"2907","Ondřejov,Třemblat,Náves","49.9299","14.76181","1706150"
"2908","Zvánovice","49.93204","14.77791","1937980"
"2909","Ondřejov,Třemblat,Rozc.Zvánovice","49.92692","14.763720000000001","1706150"
"291","Římská","50.07697","14.43542","1272050"
"2910","Ondřejov,Třemblat,Rozc.Mnichovice","49.916290000000004","14.76431","1706150"
"2912","Ondřejov,U Pily","49.90889","14.77391","1112790"
"2914","Ondřejov,Náměstí","49.90461","14.78328","1112790"
"2916","Chocerady","49.87207","14.80264","0520270"
"2917","Vlkančice,Pyskočely,Na Bábě","49.88431","14.874579999999998","1839380"
"2919","Horní Kruty,Újezdec,rozc.0.8","49.89237","14.94489","0432310"
"2921","Horní Kruty,Újezdec","49.89976","14.947239999999999","0432310"
"2923","Drazdecká","49.995909999999995","14.51854","3192440"
"2924","Vlkančice,Stará Hůra","49.89326","14.887979999999999","1839460"
"2926","Vlkančice","49.90194","14.89812","1839460"
"2928","Tehov","49.97076","14.69343","1653010"
"293","Za Slánskou silnicí","50.07108","14.305929999999998","1296740"
"2930","Všestary","49.95851","14.685579999999998","1873990"
"2932","Všestary,Menčice","49.953959999999995","14.699279999999998","1873810"
"2934","Mnichovice,nám.","49.93582","14.7095","0975431"
"2936","Stříbrná Skalice,Hrad.Střimelice","49.9017","14.816020000000002","1576780"
"2938","Stříbrná Skalice,Kost.Střimelice","49.915240000000004","14.80691","1576860"
"2940","Stř.Skalice,Kost.Střimel.,Skalka","49.91564","14.79907","1576860"
"2942","Ondřejov,Turkovice","49.90271","14.756839999999999","1112870"
"2945","Stará Stodůlecká","50.0495","14.356979999999998","1288720"
"2947","Hrusice,Na Šmejkalce","49.903240000000004","14.7446","0486580"
"2949","Hrusice","49.90979","14.73865","0486580"
"295","Olgy Havlové","50.08748","14.479529999999999","3157610"
"2951","Hrusice,Vlčí halíř","49.92094","14.73872","0486580"
"2953","Mnichovice,U Hřbitova","49.92576","14.72756","0975431"
"2955","Mnichovice,požární dům","49.93349","14.71217","0975431"
"2957","Všestary,Vávrov","49.945609999999995","14.69214","3176910"
"2959","Kaliště,Lensedly","49.89434","14.753779999999999","0621890"
"2961","Kaliště","49.88214","14.7742","0621710"
"2963","Kaliště,Poddubí","49.87388","14.76115","0621971"
"2964","Štíhlice","50.00607","14.778739999999999","0312240"
"2965","Jinonická","50.069390000000006","14.37752","1287750"
"2966","Doubravčice","50.02275","14.791870000000001","0312080"
"2968","Štíhlice,Doubravčická","50.00841","14.777729999999998","0312240"
"297","Na Hůrce","50.07801","14.292029999999999","1297390"
"2970","Mukařov,Žernovka","50.000209999999996","14.75808","1003310"
"2974","Mnichovice,hotel Myšlín","49.93821","14.74131","0975510"
"2975","Kostelec n.Č.l.,Dobrovského","49.99105","14.853860000000001","0701650"
"2977","Kostelec n.Č.l.,Jevanská","49.987140000000004","14.8492","0701650"
"2979","Jevany,Bohumil","49.97772","14.83941","0593070"
"2980","Jevany,Smrčiny","49.98342","14.837","0593070"
"2982","Jevany,Lesní podnik","49.97777","14.82899","0593070"
"2984","Černé Voděrady,Chaloupky","49.94487","14.809470000000001","0200870"
"2986","Jiráskova čtvrť","50.0941","14.5459","1317410"
"2988","Kyjský hřbitov","50.0932","14.546729999999998","1317410"
"299","Mokřanská","50.06309","14.52685","3174110"
"2990","Černé Voděrady,ObÚ","49.942040000000006","14.807179999999999","0200870"
"2992","Černé Voděrady","49.940490000000004","14.80725","0200870"
"2993","Mukařov,Srbín","49.982459999999996","14.73954","1529600"
"2995","Svojetice,Na skalce","49.9692","14.738920000000002","1611790"
"2997","Klokočná","49.95909","14.72011","0664600"
"2998","Říčany,Olivovna","49.99191","14.6916","1455050"
"3","Luštěnice-Újezd","50.3185","14.94614","0891090"
"30","Parkoviště P+R","50.12516","14.51561","1311720"
"3002","Tehov,Lada","49.98064","14.70301","1653010"
"3004","Jevany,Černokostelecká","49.97113","14.816170000000001","0593150"
"3006","Ondřejov,Hřbitov","49.89925","14.787579999999998","1112790"
"3008","Jiráskovo náměstí","50.07625","14.41416","1273290"
"3012","Kaliště,V Loučkách","49.87742","14.76109","0621710"
"3014","Stříbrná Skalice,Vozlín","49.90266","14.838779999999998","1576940"
"3016","Stříbrná Skalice,V Můstkách","49.90289","14.83165","1576940"
"3018","Rakovník,rozc.Cikánky","50.11942","13.732679999999998","1391810"
"3020","Okoř","50.16275","14.2578","0838100"
"3021","Roztoky,Nádraží","50.15893","14.39773","1425060"
"3023","Roztoky u Prahy","50.15968","14.398439999999999","1425060"
"3024","Roztoky,Tyršovo nám.","50.16107","14.39205","3079120"
"3026","Nupaky,hotel","49.9941","14.598479999999999","0234510"
"3028","Roztoky,U Rybníčku","50.16142","14.382710000000001","3079120"
"303","Slovinská","50.07059","14.460070000000002","1322500"
"3031","Roztoky,Rozc.Žalov","50.16032","14.37214","1425140"
"3039","Jiřího z Poděbrad","50.07772","14.45075","1275400"
"3049","Královský letohrádek","50.094229999999996","14.405","1271320"
"305","Plošná","50.06832","14.51816","1318060"
"3051","Jílové u Prahy,Učiliště","49.89737","14.48489","0600970"
"3053","Libeř,Libeň","49.93932","14.463479999999999","0825540"
"3055","Libeř,Libeň,Odb.STS","49.93603","14.46406","0825540"
"3057","Libeř,Na Ovčíně","49.92751","14.48085","0825620"
"3059","Libeř","49.92313","14.4802","0825620"
"3061","Jílové u Prahy,Rozc.Radlík","49.91202","14.4981","0601190"
"3063","Jílové u Prahy,Radlík","49.907379999999996","14.49194","0601190"
"3065","Jílové u Prahy,Pražská","49.89836","14.4938","0600970"
"3067","Jílové u Prahy,Náměstí","49.89513","14.493020000000001","0600970"
"3072","Jižní Město","50.03432","14.538379999999998","1282440"
"3074","Roztoky,Přemyslovská","50.16512","14.371039999999999","1425140"
"3075","Roztoky,Levý Hradec","50.16698","14.37236","1425140"
"3076","Ondřejov,Třemblat,K Myšlínu","49.930620000000005","14.752820000000002","1706150"
"3078","Hostivice,Palouky","50.07901","14.280220000000002","3267210"
"3080","Hostivice,Nouzov","50.08035","14.2628","0458371"
"3082","Hostivice,Ve Vilkách","50.08318","14.23219","0458450"
"3084","Hostivice-U hřbitova","50.083870000000005","14.23046","0458450"
"3085","Hostivice,Nádraží","50.08318","14.25852","0458371"
"3088","Jeneč,vysílací středisko","50.087959999999995","14.197679999999998","0582620"
"309","Nádraží Horní Měcholupy","50.04783","14.565079999999998","1325860"
"3092","Jeneč,Nádraží","50.093779999999995","14.212670000000001","0582620"
"3095","Jeneč zast.","50.09465","14.21333","0582620"
"3096","Čilec","50.21926","14.98236","0237950"
"3098","Nad Závistí","49.98052","14.4042","1285460"
"3099","Hostouň","50.11594","14.201429999999998","0459260"
"3103","Čachovice","50.27013","14.94869","0181980"
"3105","Řitka,Bučina","49.8896","14.287729999999998","1458070"
"3107","Krušovice","50.17501","13.77333","0754180"
"3109","Dobrovíz,Obecní úřad","50.11356","14.218370000000002","0274810"
"311","Praha-Horní Měcholupy","50.04802","14.565570000000001","1325780"
"3111","Holubice,Kozinec,Habrová","50.1989","14.297770000000002","3267120"
"3112","Říčany,Voděrádky,U Kapličky","49.97837","14.639270000000002","1455210"
"3113","Psáry,Domov Laguna","49.93207","14.50828","1364250"
"3115","Psáry","49.93673","14.512360000000001","1364250"
"3117","Psáry,Štědřík","49.942040000000006","14.51571","3002250"
"3119","Jordánská","50.11104","14.56279","1312110"
"3120","Psáry,Dolní Jirčany","49.94898","14.51958","1364170"
"3122","Hostouň,U Hřiště","50.11061","14.20384","0459260"
"3124","Dobrovíz","50.11449","14.216879999999998","0274810"
"3126","Kněževes,U Nádraží","50.12222","14.254439999999999","0668510"
"3128","Kněževes","50.12123","14.25809","0668510"
"3130","Uhříněveský hřbitov","50.02752","14.6163","3175430"
"3132","Benešov,Lidl","49.788540000000005","14.683670000000001","0022080"
"3134","Juliska","50.1107","14.38592","1294880"
"3136","Tuchoměřice,Komerční zóna","50.13568","14.261029999999998","1713520"
"3137","Říčany,5.května","49.9934","14.66725","1454750"
"3142","Říčany,Nádraží","49.996590000000005","14.662189999999999","1454750"
"3146","Říčany","49.99753","14.66376","1454910"
"3147","Lišany,u ovčína","50.14038","13.735079999999998","0849300"
"3149","Zvánovice,Kádov","49.93722","14.78057","1937980"
"3151","Malotice","49.96606","14.981029999999999","0911890"
"3153","Oleška,Brník","49.98342","14.90746","1101410"
"3155","Oleška,Králka","49.98718","14.92945","1101670"
"3157","Oleška,Bulánka","49.989709999999995","14.93484","1101590"
"3159","Zásmuky,Doubravčany","49.961090000000006","15.00614","1910600"
"3161","K Cikánce","49.9975","14.34172","3166520"
"3165","Zásmuky,rozc.Vršice","49.95998","15.019329999999998","1911080"
"3167","Zásmuky,nám.","49.95412","15.03031","1911080"
"3169","Velké Přílepy,Pražská","50.15655","14.31639","1793530"
"3171","Zásmuky,u sokolovny","49.951840000000004","15.035110000000001","1911080"
"3173","Bečváry,žel.st.","49.95661","15.07063","0012950"
"3175","Bečváry","49.95565","15.070870000000001","0012950"
"3178","Suchdol","49.952740000000006","15.165460000000001","1590850"
"3180","Uhlířské Janovice,Náměstí","49.88054","15.064210000000001","1732150"
"3182","Poříčí n.Sáz.","49.83814","14.674779999999998","1260390"
"3184","Staňkovice","49.87488","15.01392","1536130"
"3186","K Dubečku","50.05537","14.564820000000001","1325430"
"3190","Úžice,Rozc.Mělník","49.9046","14.92605","1757900"
"3192","Úžice,Benátky","49.90191","14.932329999999999","1757900"
"3194","Úžice,Smrk,rozc.0.8","49.881209999999996","14.98255","1758540"
"3196","Úžice,Čekánov,rozc.0.5","49.88933","14.95609","1758112"
"3198","Úžice,Chrastná,rozc.0.5","49.88686","14.96584","1758113"
"32","příměstské linky PID","50.125370000000004","14.515770000000002","1311720"
"3200","Prusice,Rozc.","49.97","14.881479999999998","1081200"
"3202","Zásmuky,Dupanda","49.958690000000004","15.02864","1911080"
"3204","Svojetice,U Hájenky","49.965790000000005","14.733020000000002","1611790"
"3206","Ondřejov,Turkovická","49.905879999999996","14.772379999999998","1112790"
"3208","Rudná,Celní úřad","50.02021","14.205039999999999","3268440"
"321","Opatov","50.02789","14.50919","1282610"
"3210","K Holyni","50.0203","14.35883","1505920"
"3214","Staňkovice,Smilovice,rozc.1.0","49.8788","14.99061","1758540"
"3216","Staňkovice,Chlum,rozc.0.5","49.87655","15.000229999999998","1536050"
"3218","Staňkovice,Ostašov,rozc.1.1","49.87785","15.0319","1536130"
"322","BUS Šeberov, Kunratice","50.02794","14.507470000000001","1282610"
"3220","Staňkovice,Nová Ves,rozc.0.3","49.87984","15.03791","1536130"
"3222","Bečváry,rozc.Poďousy","49.95604","15.10254","0013170"
"3224","Ratboř,rozc.Těšínky","49.95386","15.14507","1397340"
"3226","Kořenice,rozc.Chotouchov","49.956379999999996","15.1218","0697100"
"3228","Poříčí n.Sáz.,Rozc.Nové Městečko","49.84691","14.67516","1260390"
"323","Starochodovská ul.","50.02767","14.50753","1282610"
"3230","Tišice","50.26982","14.555439999999999","1673630"
"3232","Tišice,Záv.Kafilerie","50.28638","14.5406","1673390"
"3234","Tišice,Kozly","50.256440000000005","14.560379999999999","1673550"
"3236","Tišice,Chrást","50.26324","14.568439999999999","1673470"
"3238","Nedomice,Křížek","50.2605","14.61403","1171020"
"324","BUS Čestlice, Průhonice","50.027390000000004","14.507470000000001","1282610"
"3240","Všetaty,Přívory","50.287240000000004","14.5767","1363790"
"3242","Kostelec n.L.,U Starého Labe","50.243809999999996","14.59392","0701730"
"3244","Záryby","50.2205","14.625929999999999","1910190"
"3246","K Letišti","50.09563","14.29354","1298280"
"325","Sídliště, Úřad MČ Praha 11","50.02783","14.508410000000001","1282610"
"3250","Dřevčice,Rozc.Jenštejn","50.15995","14.61227","0329300"
"3252","Voznice","49.817170000000004","14.2168","1850510"
"3254","Jenštejn,Dehtáry","50.14287","14.6338","0584830"
"3256","Svémyslice","50.14627","14.64835","1927750"
"3258","Zápy,Ostrov lázně","50.16142","14.67265","0092370"
"326","BUS Spořilov, Vršovice","50.028079999999996","14.50828","1282610"
"3260","Zápy","50.16445","14.678339999999999","0092290"
"3262","Zápy,U Pomníku","50.16584","14.68099","0092290"
"3263","Skorkov,Otradovice,Křiž.","50.2162","14.7418","1483690"
"3265","Sojovice","50.222","14.761420000000001","1521610"
"3266","K Obecním hájovnám","50.04293","14.515070000000001","3297710"
"3268","Sídliště Letňany","50.14287","14.506520000000002","1314580"
"3270","Skorkov,Podbrahy","50.22077","14.74574","1483770"
"3272","Skorkov,U Transformátoru","50.230920000000005","14.74949","1483850"
"3273","Brandýs n.L.-St.Bol.,Fakulta","50.18423","14.66806","0091300"
"3274","Brandýs n.L.-St.Bol.,Na Radosti","50.18312","14.67714","3010940"
"3275","Brandýs n.L.-St.Bol.,Kralovice","50.17924","14.686589999999999","3010940"
"3276","Skorkov,Otradovice","50.21054","14.74435","1483690"
"3277","Otradovice","50.2061","14.745999999999999","1483690"
"3278","Zápy,PREFA","50.17474","14.69691","0092290"
"3279","Lázně Toušeň","50.169259999999994","14.71679","1678510"
"3281","Strančice,škola","49.947179999999996","14.6746","1560600"
"3282","K Pitkovičkám","50.0246","14.590629999999999","1734280"
"3284","Čelákovice,V Prokopě","50.15994","14.735660000000001","0192910"
"3286","Čelákovice zast.","50.1598","14.735479999999999","0192830"
"3287","Čelákovice,Rumunská","50.16084","14.7445","0191600"
"3289","Čelákovice,TOS","50.16353","14.744029999999999","0191780"
"3291","Čelákovice,Nám.","50.16301","14.749529999999998","0191510"
"3293","Čelákovice,Kovohutě","50.16729","14.762270000000001","0191940"
"3294","Čelákovice-Jiřina","50.167559999999995","14.76537","0191940"
"3295","Odolena Voda,Závod","50.22125","14.40815","1089870"
"3299","Zdiby,U Parku","50.16539","14.453120000000002","1924140"
"33","manipulační stání","50.12571","14.515670000000002","1311720"
"3301","Klecany,Zdibsko","50.18376","14.44006","0660361"
"3304","Klíčany","50.20108","14.43503","0662060"
"3306","Klecany,D8 Park","50.17658","14.44716","0660362"
"3307","Karlovy lázně","50.08457","14.413470000000002","1269930"
"3308","Odolena Voda,U Klubu","50.228629999999995","14.411620000000001","1089950"
"3310","Odolena Voda,Dolínek,Vodolská","50.22782","14.42114","1089870"
"3311","Odolena Voda,Dolní náměstí","50.233309999999996","14.41124","1089950"
"3313","Postřižín","50.23348","14.386220000000002","1262090"
"3315","Kozomín","50.23729","14.37229","0720010"
"3317","Kozomín,Rozc.","50.240559999999995","14.37265","0720010"
"3319","Zlončice","50.229079999999996","14.35965","0553790"
"3321","Chvatěruby","50.23515","14.346520000000002","0553610"
"3323","Veltrusy,STS","50.266890000000004","14.334220000000002","1798760"
"3325","Zdiby,Výzkumný ústav","50.171209999999995","14.45212","1924140"
"3327","K Teplárně","50.16874","14.52105","1314910"
"3331","Říčany,Voděradská","49.983090000000004","14.64768","1454590"
"3335","Kralupy n.Vlt.,Kaučuk","50.25537","14.32054","0728850"
"3337","Kralupy n.Vlt.,Kovošrot","50.24005","14.333910000000001","3193840"
"3339","Kralupy n.Vlt.,Lobeček,Pískovna","50.24329","14.328370000000001","3193840"
"3341","Kralupy n.Vlt.,Lobeček,Rozc.","50.25105","14.32275","0728850"
"3343","Kralupy n.Vlt.,Lobeček","50.24719","14.316510000000001","0728770"
"3345","Kralupy n.Vlt.,Žel.st.","50.2393","14.312879999999998","0727960"
"3348","Kralupy nad Vltavou","50.23851","14.31376","0727960"
"3350","Zdiby","50.16655","14.45204","1924140"
"3351","Zdiby,Veltěž,Pošta","50.16774","14.44621","3221051"
"3353","Zdiby,Veltěž","50.167759999999994","14.439979999999998","3221051"
"3355","K Tuchoměřicům","50.1161","14.2916","1343760"
"3359","Zdiby,Přemyšlení","50.1685","14.43091","1924060"
"336","Generála Janouška","50.10249","14.56395","3171870"
"3361","Klecany,U Hřbitova","50.17712","14.4187","0660361"
"3363","Klecany","50.17548","14.41218","0660361"
"3365","Klecany,Klecánky","50.1707","14.402479999999999","0660280"
"3366","Klecany,U Kostela","50.177479999999996","14.40965","0660361"
"3368","Husinec,Rozc.","50.1753","14.3717","0496710"
"3370","Husinec,Řež,Sídliště","50.17244","14.36195","0496890"
"3372","Husinec,Řež","50.170609999999996","14.36036","0496890"
"3374","Husinec,Řež,Záv.","50.17718","14.358529999999998","0496890"
"3377","K Vystrkovu","49.99968","14.408270000000002","1285710"
"3379","Bašť","50.204440000000005","14.47383","0011210"
"338","Depo Hostivař","50.07553","14.515379999999999","1319890"
"3381","Větrušice","50.191520000000004","14.38432","1811290"
"3382","Klecany,Drasty,Čistírna","50.19213","14.396579999999998","0660100"
"3384","Klecany,Drasty","50.19618","14.399420000000001","0660100"
"3386","Vodochody,Hoštice","50.20207","14.406360000000001","1843570"
"3387","Vodochody,Rozc.Hoštice","50.20272","14.400689999999999","1843570"
"3389","Vodochody","50.20623","14.3987","1843650"
"339","Černokostelecká ul., TRAM, BUS","50.075720000000004","14.51544","1319890"
"3391","Vodochody,U Školy","50.2076","14.39678","1843650"
"3393","Máslovice","50.20885","14.379629999999999","0922230"
"3394","Postřižín,U Kapličky","50.23219","14.38698","1262090"
"3396","K Žižkovu","50.099579999999996","14.496089999999999","1312960"
"3398","Panenské Břežany,Zámek","50.211690000000004","14.43671","1175520"
"34","Listova ul.","50.12493","14.515989999999999","1311720"
"3400","Panenské Břežany","50.21465","14.4403","1175520"
"3402","Odolena Voda,Dolínek","50.22568","14.421570000000001","1089870"
"3404","Zdiby,U Celnice","50.161429999999996","14.452670000000001","1924140"
"3406","Úžice,Kopeč","50.25116","14.422189999999999","1039930"
"3407","Veliká Ves","50.241859999999996","14.45496","1779620"
"3408","Neratovice,Korycany","50.25418","14.451770000000002","0696470"
"3410","Bašť,Baštěk","50.20511","14.46231","0011390"
"3412","Český Brod,Žel.st.","50.076190000000004","14.86522","0228370"
"3415","Český Brod","50.076679999999996","14.866270000000002","0228370"
"3419","Myšlínská","50.06219","14.53462","1318140"
"3424","Český Brod,Jana Kouly","50.07323","14.86323","0228370"
"3427","Český Brod,U Vodárny","50.09091","14.86484","0228110"
"3429","Tismice,bytovky","50.059540000000005","14.82504","1671770"
"3431","Český Brod,Liblice,Bylanská","50.071000000000005","14.88463","0228290"
"3433","Tuklaty","50.077","14.770610000000001","1714250"
"3434","Nádraží Běchovice střed","50.08442","14.616710000000001","3173570"
"3436","Praha-Běchovice střed","50.08363","14.61558","3173570"
"3437","Mnichovice","49.93272","14.70703","0975431"
"3438","Černošice,Mokropsy žel.zast.","49.94652","14.33012","0203710"
"3439","Černošice-Mokropsy","49.94623","14.33034","0203710"
"3440","Všenory","49.93284","14.30504","1872750"
"3441","Kablo","50.0621","14.53836","1318220"
"3446","Řevnice","49.9165","14.23891","1453780"
"3447","Zeleneč,Mstětice,Žel.st.","50.13702","14.691679999999998","1927670"
"3448","Mstětice","50.13693","14.69214","1927670"
"3449","Semice,Rozc.Velenka","50.16283","14.878870000000001","1472140"
"3451","Roztoky,Solníky","50.16608","14.38545","3079040"
"3452","Dolany nad Vltavou,Debrno","50.217079999999996","14.323970000000001","0283120"
"3454","Kralupy n.Vlt.,Barvy Laky","50.23764","14.30729","0727700"
"3456","Kralupy n.Vlt.,Městský úřad","50.24136","14.311620000000001","0727110"
"3458","Kostelec n.Č.l.,Svatbín","49.98826","14.8804","0752300"
"3460","Sulice,Želivec,Mandava","49.92285","14.57562","1594331"
"3462","Krupá","50.01727","14.87079","0752210"
"3466","Kačerov","50.04184","14.45931","1275910"
"3473","Praha-Kačerov","50.04172","14.46181","3158930"
"3479","Dvory","50.211659999999995","14.99603","0339010"
"3481","Přistoupim","50.05523","14.876539999999999","1362710"
"3483","Přistoupim,Rozc.","50.06361","14.8764","1362710"
"3485","Kostelec n.Č.l.,Truba","50.00551","14.83639","1983310"
"3487","Přehvozdí","50.02791","14.839920000000001","1713790"
"3489","Přehvozdí,U Hřbitova","50.0303","14.84116","1713790"
"3490","Tuchoraz","50.04809","14.85053","1713870"
"3492","Tuchoraz,U Sadů","50.05147","14.85723","1713870"
"3494","Kajetánka","50.08652","14.37093","1293210"
"3496","K Lipanům","50.01575","14.60643","3176320"
"3500","Kouřim","50.00524","14.972710000000001","0712180"
"3502","Kouřim,ZŠ","50.0015","14.973679999999998","0712180"
"3506","Kouřim,Skanzen","49.99942","14.97005","0712180"
"3508","Kouřim,Molitorov","49.99638","14.95875","0712260"
"3510","Jenštejn,Domov seniorů","50.15421","14.60053","0584910"
"3512","Vitice,Dobré Pole","50.00016","14.92504","1827880"
"3516","Vitice,Močedník","50.01866","14.910379999999998","1828260"
"3518","Oleška,Brník,U Rybníka","49.9825","14.90509","1101410"
"3520","Vitice","50.031040000000004","14.91576","1828340"
"3522","Vitice,U Školy","50.031000000000006","14.915779999999998","1828340"
"3524","Kalinův mlýn","50.111000000000004","14.36755","1294530"
"3526","Vitice,Hřiby","50.0323","14.917710000000001","1828340"
"3528","Dobročovice","50.05618","14.69899","0273160"
"3530","Kšely","50.04383","14.90064","1828180"
"3532","Vitice,Chotýš","50.01893","14.90378","1828000"
"3534","Klučov,U mlýna","50.0949","14.90541","0666480"
"3535","Klučov","50.09431","14.90376","0666480"
"3536","Úvaly,Husova","50.07327","14.72553","1757310"
"3537","Dobrovice,Libichov,Hlavní silnice","50.35217","14.913210000000001","0827910"
"3539","Úvaly,Radlická čtvrť","50.06575","14.716520000000001","3078580"
"3541","Roblín,Hájovna","49.963809999999995","14.26344","1401980"
"3543","Kamenická","50.09948","14.429260000000001","1303110"
"3545","Kostelec n.Č.l.,Chaloupky","49.992290000000004","14.87909","0752300"
"3547","Rudná,Hewlett-Packard","50.01773","14.20059","3268440"
"3549","Rudná,Vypich","50.01593","14.19779","3268440"
"3551","Rudná,Nerudova","50.032109999999996","14.22669","1433240"
"3553","Rudná,V Brance","50.025009999999995","14.21817","1433240"
"3555","Klecany,Astrapark","50.18351","14.424079999999998","0660361"
"3556","Všetaty,Přívory,Průhon","50.287009999999995","14.568570000000001","1363790"
"3558","Bašť,Měšická","50.20238","14.4844","0826600"
"3560","Polerady","50.2006","14.59481","1252110"
"3562","Veleň,U Pomníku","50.174009999999996","14.55609","1777500"
"3564","Kamenolom Zbraslav","49.95942","14.394070000000001","3166280"
"3566","Předboj","50.22599","14.478320000000002","1342010"
"3568","Zlonín","50.21743","14.508289999999999","1933480"
"3571","Líbeznice,Pošta","50.194359999999996","14.49295","0826600"
"3573","Neratovice,Byškovice","50.25407","14.4947","1036590"
"3575","Neratovice,U Vojtěcha","50.261359999999996","14.50735","1035860"
"3577","Libiš,Ke Spolaně","50.26505","14.51167","1036080"
"3579","Úžice","50.25607","14.38064","1758890"
"3582","Úžice,Červená Lhota","50.26315","14.39085","1758710"
"3584","Dřínov,Stavadla","50.26992","14.396379999999999","0330810"
"3586","Kamýcká","50.1306","14.38275","1300360"
"3590","Dřínov,U Rybníka","50.2743","14.39935","0330810"
"3592","Újezdec","50.28164","14.419960000000001","1740170"
"3594","Chlumín","50.28869","14.449710000000001","0518450"
"3596","Kojetice,Rozc.","50.236309999999996","14.49451","0678570"
"3598","Odolena Voda,U Školy","50.228609999999996","14.41472","1089950"
"3599","Kojetice,Žel.st.","50.23757","14.49954","0678570"
"36","BUS Prosek, Palmovka","50.12531","14.51631","1311720"
"3601","Kojetice u Prahy","50.23726","14.49913","0678570"
"3602","Veltrusy","50.271879999999996","14.324229999999998","1798760"
"3604","Klecany,Ahold","50.18373","14.41151","0660361"
"3605","Čelákovice,Žel.st.","50.157709999999994","14.75334","0191860"
"3607","Čelákovice","50.15798","14.75426","0191860"
"3610","Karenova","50.063390000000005","14.368310000000001","1286600"
"3611","Čelákovice,Záluží,Cihelna","50.15023","14.748579999999999","0192830"
"3612","Čelákovice,Záluží","50.14437","14.74569","0192320"
"3613","Nehvizdy","50.1308","14.730189999999999","1024070"
"3615","Úvaly,Zálesí","50.09317","14.71766","3078740"
"3617","Úvaly,Hodov","50.08559","14.71834","1757310"
"3619","Úvaly,Pivovar","50.069990000000004","14.732629999999999","3078310"
"3621","Beroun,Hostim","49.96032","14.128929999999999","0457300"
"3623","Úvaly,Slovany","50.06692","14.735520000000001","3078400"
"3625","Mnichovice,U křížku","49.93907","14.7156","0975431"
"3627","Mnichovice,bytovky","49.94142","14.702079999999999","0975431"
"3629","Mnichovice,Závěrka","49.92927","14.71732","0975431"
"3631","Brandýs n.L.-St.Bol.,U Hřbitova","50.19993","14.6797","0092110"
"3632","Tuhaň,Červená Píska,I","50.29479","14.53345","1712550"
"3633","Brandýs n.L.-St.Bol.,Zahradní Město","50.174609999999994","14.649460000000001","3270510"
"3635","Loděnice","49.99282","14.16303","0863210"
"3636","Černošice,Komenského","49.96102","14.32334","0203890"
"3637","Nučice,Rozc.Krahulov","50.00908","14.195910000000001","1080570"
"3639","Loděnice,pod lanovkou","50.00039","14.165320000000001","0863210"
"3641","Slánská","50.06447","14.3094","3063120"
"3647","Loděnice,Jánská,II","49.99138","14.15081","1857100"
"3649","Vráž,U jelena","49.9855","14.13155","1857100"
"3651","Vráž,rozc.k žel.st.","49.98299","14.125539999999999","1857100"
"3653","Vráž u Berouna","49.9837","14.123529999999999","1857100"
"3654","Dvory,Veleliby,hlavní silnice","50.21192","15.03258","1083750"
"3656","Řevnice,nám.","49.91433","14.23642","1453780"
"3658","Nová Ves p.Pleší,Včelník","49.84404","14.2792","3269760"
"3660","Hlásná Třebaň,Rovina","49.92345","14.22794","0389110"
"3661","Sudovo Hlavno,Rozc.k háj.","50.27074","14.6651","1588950"
"3663","Zápy,Stavby mostů","50.17687","14.69166","0092290"
"3683","Karlovo náměstí","50.07459","14.416979999999999","1273290"
"3697","Novoměstská radnice","50.077459999999995","14.41952","1271830"
"3701","Moráň","50.074020000000004","14.418729999999998","1271830"
"3702","Palackého náměstí","50.07323","14.41525","1273110"
"3704","Palackého náměstí (nábřeží)","50.07251","14.41411","1273110"
"3707","Úvaly,Náměstí Arnošta z Pardubic","50.07373","14.73029","1757310"
"3709","Barchovice,rozc.Radlice","49.949020000000004","14.95354","0009140"
"3711","Barchovice","49.942859999999996","14.969270000000002","0009140"
"3712","Barchovice,Hryzely","49.935590000000005","14.98265","0009220"
"3714","Svojetice,K Tehovci","49.976000000000006","14.7349","1611790"
"3716","Horní Kruty","49.9196","14.959779999999999","0432140"
"3718","Horní Kruty,Dolní Kruty","49.914809999999996","14.95832","0432220"
"3720","Horní Kruty,Přestavlky","49.91129","14.95694","0432220"
"3722","Loděnice,Jánská,I","49.98944","14.15135","1602450"
"3724","Svatý Jan p.Skalou,Sedlec","49.97835","14.13525","1602531"
"3726","Karlštejnská","50.052640000000004","14.35958","1287320"
"3728","Horní Kruty,Bohouňovice II","49.91449","14.97223","0431920"
"3729","Svatý Jan p.Skalou,Svatý Jánek","49.973890000000004","14.13502","1602531"
"3731","Kouřim,rozc.Běšínov","49.98254","14.9765","1949560"
"3733","Svatý Jan p.Skalou","49.96875","14.133289999999999","1602610"
"3735","Barchovice,Radlice","49.93444","14.945910000000001","0009310"
"3736","Tismice,Limuzy","50.056909999999995","14.790220000000001","1671510"
"3738","Rostoklaty","50.072379999999995","14.80214","1414450"
"3740","Český Brod,Nem.","50.07331","14.852770000000001","0227480"
"3742","Český Brod,Jungmannova","50.07224","14.858260000000001","0227300"
"3743","Český Brod,Kollárova","50.074940000000005","14.8578","0227300"
"3744","Kateřinky","50.0205","14.520270000000002","1739830"
"3748","Benkova","50.037929999999996","14.4991","1282100"
"3750","Český Brod,Muzeum","50.0746","14.85409","0227480"
"3752","Český Brod,Štolmíř","50.08596","14.84216","0228110"
"3754","Český Brod,Zborovská","50.0775","14.863679999999999","0227720"
"3756","Český Brod,Liblice,Vodárna","50.078179999999996","14.87805","3210100"
"3758","Český Brod,Liblice,SEŠ","50.07598","14.8801","0228290"
"3760","Český Brod,Liblice,Obec","50.0745","14.883170000000002","0228290"
"3762","Klučov,Lstiboř","50.07929","14.90536","0666560"
"3764","Chrášťany,Bylany","50.06491","14.909410000000001","0539880"
"3767","Chrášťany,Bylany,Škola","50.06693","14.907520000000002","0539880"
"3769","Kavalírka","50.070040000000006","14.370629999999998","1290030"
"3776","Chrášťany,Chotouň","50.06716","14.956470000000001","0539960"
"3780","Klučov,Žhery","50.08551","14.943060000000001","1485980"
"3782","Klučov,Skramníky","50.0836","14.958260000000001","1485800"
"3784","Třebovle,Borek","50.03147","14.9459","1704700"
"3786","Třebovle","50.02552","14.955570000000002","1705180"
"3788","Třebovle,Království,Rozc.","50.0146","14.968229999999998","0712180"
"3790","Vitice,Lipany,Mohyla","50.03329","14.93994","0839500"
"3792","Hradešín,ObÚ","50.03872","14.7559","1362800"
"3794","Kazanka","50.11738","14.4275","1302060"
"3796","Kounice","50.10791","14.85599","0711450"
"3798","Bříství","50.13399999999999","14.84165","0150590"
"38","BUS Letňany, Čakovice","50.12528","14.51684","1311720"
"3800","Černíky","50.102340000000005","14.81965","0202220"
"3802","Vykáň","50.12024","14.817110000000001","1875510"
"3804","Rostoklaty,Žel.st.","50.08041","14.8039","1414450"
"3807","Rostoklaty,Nová Ves II","50.07165","14.82288","1414370"
"3809","Vyšehořovice,Vyšehořovičky","50.119209999999995","14.7863","1885140"
"3811","Přerov n.L.,U Skanzenu","50.16041","14.82489","1350380"
"3813","Přerov n.L.,Nový Přerov","50.165859999999995","14.837110000000001","1350380"
"3815","Kbelská","50.105129999999996","14.53204","1310590"
"3819","Lysá n.L.,škola","50.20476","14.839160000000001","0895160"
"3821","Lysá n.L.,pošta","50.20047","14.841339999999999","0895160"
"3823","Lysá n.L.,žel.st.","50.19583","14.84251","0895830"
"3825","Lysá nad Labem","50.19555","14.842720000000002","0895830"
"3826","Lysá n.L.,Litol","50.18506","14.851970000000001","0895590"
"3828","Lysá n.L.,Litol,U Mostu","50.174890000000005","14.853439999999999","3198050"
"3830","Tatce,žel.zast.","50.09937","14.983929999999999","1651740"
"3837","Tuklaty,Tlustovousy","50.09081","14.759070000000001","1714170"
"3839","Břežany II","50.092929999999996","14.80575","0149580"
"3841","Kbely","50.13089","14.552929999999998","1316440"
"3853","Úvaly,Hřbitov","50.07318","14.73732","1757310"
"3855","Čelákovice,U Hájku","50.16449","14.76709","0192080"
"3859","Čelákovice,Rozc.Sedlčánky","50.16258","14.7867","0192160"
"3861","Přerov n.L.,Rozc.u obory","50.14649","14.8253","0150590"
"3863","Kralupy n.Vlt.,Hřbitov","50.23296","14.310920000000001","0727880"
"3864","Lysá n.L.,sídl.","50.20793","14.84472","0895320"
"3866","Čelákovice,Sedlčánky","50.16796","14.787220000000001","0192160"
"3867","Třebestovice","50.12567","14.960770000000002","1696410"
"3868","Poříčany,Škola","50.10842","14.913870000000001","1259890"
"3869","Břežany II,U sokolovny","50.08977","14.80553","0149580"
"3871","Ke Kaménce","50.07152","14.302420000000001","1297040"
"3873","Bříství,Svárov","50.13063","14.84232","0150590"
"3875","Jirny,Logistický park","50.125","14.69005","3246040"
"3877","Jirny,Rozc.","50.126529999999995","14.700370000000001","3246040"
"3879","Břežany II,na Malé Straně","50.0939","14.80267","0149580"
"3881","Rakovník,Lišanská","50.10946","13.733989999999999","1390920"
"3883","Říčany,Pacov,Horní Pacov","50.01345","14.68234","1172000"
"3886","Zápy,Tesco Brandýs n.L.","50.17657","14.6696","0092290"
"3888","Branické náměstí","50.03435","14.41485","1281210"
"3890","Husinec,Samota","50.17929","14.391329999999998","0496710"
"3892","Klíčany,Břežanská","50.20711","14.4366","3246210"
"3894","Milovice,Park Mirakulum","50.23686","14.86105","3185070"
"3896","Milovice,Benátecká Vrutice,Armádní","50.23191","14.84371","0020620"
"3898","Milovice,Letecká","50.231159999999996","14.887360000000001","0951920"
"39","Beladova ul.","50.12481","14.516779999999999","1311720"
"3900","Milovice,Třešňová","50.22421","14.89609","0951920"
"3902","Milovice,Boží Dar","50.24799","14.91795","3184930"
"3903","Zbožíčko","50.22658","14.93774","1916800"
"3905","Straky","50.23345","14.96003","1560510"
"3906","Ke Schodům","50.014179999999996","14.415820000000002","1286010"
"3907","Lysá n.L.,Předměstí","50.20138","14.82906","0895080"
"3909","Jenštejn,Hradní","50.14956","14.619029999999999","3245820"
"3911","Lysá n.L.,Odbočka Dvorce","50.20861","14.80684","0896211"
"3913","Stará Lysá","50.22141","14.803379999999999","1538000"
"3915","Stará Lysá,Hostinec","50.22517","14.800629999999998","1538000"
"3917","Stará Lysá,Čihadla","50.23914","14.787629999999998","1537960"
"3921","Kutná Hora,poliklinika","49.94683","15.25174","0777470"
"3922","Kutná Hora,k nem.","49.947540000000004","15.256689999999999","0777470"
"3924","Kutná Hora,Na Valech","49.949709999999996","15.261320000000001","0777630"
"3926","Ke Smrčině","50.01768","14.525160000000001","1739830"
"3930","Kutná Hora,aut.st.","49.954159999999995","15.27225","0777390"
"3932","Rabyně,Loutí","49.7999","14.457579999999998","1372270"
"3934","Rabyně,Stromeč","49.7998","14.440679999999999","1372270"
"3936","Davle,U Kiliána","49.8798","14.389029999999998","0248210"
"3938","Ke Stadionu","50.14764","14.52475","1315710"
"3940","Štěchovice","49.851690000000005","14.40625","1632520"
"3942","Štěchovice,Nad Horou","49.84983","14.403189999999999","1632520"
"3944","Štěchovice,Masečín,Chrástky","49.853390000000005","14.388060000000001","3268610"
"3946","Štěchovice,Masečín","49.85072","14.381070000000001","0922070"
"3948","Hradištko,Brunšov","49.855779999999996","14.40286","0475380"
"3950","Hradištko,Rajchardov","49.86225","14.40664","0475380"
"3952","Hradištko,U Rybníčku","49.86475","14.411420000000001","0475460"
"3955","Hradištko,Zámek","49.86775","14.4091","0475460"
"3957","Hradištko,Osada","49.868359999999996","14.42066","0475460"
"3959","Ke Stírce","50.12267","14.45587","1306990"
"3961","Na Beránku","49.99759","14.42867","1284900"
"3965","Hradištko,Pikovice,Obec","49.87473","14.4271","0475540"
"3969","Hradištko,Pikovice,Most","49.87705","14.427389999999999","0475540"
"3972","Krňany,Závist","49.85779","14.439329999999998","0745430"
"3974","Krňany,U Křížku","49.85695","14.444329999999999","0745430"
"3976","Krňany,Rozc.Třebsín","49.85248","14.456560000000001","0745350"
"3978","Krňany,Bytovky","49.84534","14.477","0745190"
"398","Můstek","50.08347","14.42397","1270780"
"3980","Krňany,Obec","49.8424","14.47502","0745190"
"3982","Krňany,Slapnice","49.83959","14.47136","0745190"
"3984","Krňany,Teletín","49.82719","14.468229999999998","0745270"
"3988","Netvořice,Pošta","49.81695","14.517629999999999","1041240"
"399","E1","50.08359","14.4241","1270780"
"3992","Netvořice,Lhota,Rozc.","49.81276","14.487870000000001","1884250"
"3994","Hradištko,Pikovice,Pod Medníkem","49.873329999999996","14.431870000000002","0475540"
"3996","Dolní Břežany-Jarov","49.946999999999996","14.397079999999999","1093470"
"3997","Skochovice","49.924659999999996","14.37619","3192870"
"3998","Slapy,Na Polesí","49.82049","14.38592","1496160"
"4","Praha-Waltrovka","50.05513","14.377839999999999","1287160"
"400","E2 linka A, E2 line A","50.08388","14.422839999999999","1269930"
"4002","Slapy,Motorest","49.81688","14.39466","1496160"
"4006","Kladno,U Zvonečku","50.134679999999996","14.068439999999999","0650560"
"4007","Vrané n.Vlt.,Žel.st.","49.93884","14.3811","1853110"
"4009","Vrané nad Vltavou","49.93855","14.381160000000001","1853110"
"401","E3 linka A, E3 line A","50.08381","14.423029999999999","1270780"
"4010","Slapy,Na Rovínku","49.81958","14.40639","3002410"
"4012","Štěchovice,Třebenice","49.82483","14.439779999999999","3268790"
"4013","Rabyně,Hl.přístav","49.822759999999995","14.432139999999999","1372510"
"4015","Rabyně,Nová Rabyně","49.810179999999995","14.42944","1372510"
"4018","Slapy,Jednota","49.81277","14.3984","1496160"
"402","E4 linka A, E4 line A","50.08382","14.42366","1270780"
"4020","Buš","49.803309999999996","14.383939999999999","0162500"
"4022","Čím,Hrdlička","49.78302","14.38539","0238090"
"4024","Čím","49.77982","14.37672","0238090"
"4026","Nové Dvory,Porostliny","49.80936","14.372010000000001","1061010"
"4028","Nové Dvory,Nová Hospoda","49.79978","14.36439","1060970"
"403","E5","50.08406","14.42416","1270510"
"4030","Korkyně,Křížov,U Kapličky","49.79228","14.34518","0766190"
"4032","Kesnerka","50.05788","14.402070000000002","1287080"
"4033","Nové Dvory,Krámy","49.799490000000006","14.33805","1060890"
"4034","Nové Dvory","49.8026","14.35731","1060970"
"4035","Korkyně,Křížov","49.78848","14.35261","0766190"
"4037","Korkyně","49.78038","14.35205","0695150"
"404","E6","50.08443","14.4241","1270510"
"4041","Nový Knín","49.78837","14.29336","1076380"
"4043","Nový Knín,ELKO","49.78886","14.29071","1076380"
"4045","Nový Knín,Sokolovna","49.792429999999996","14.290770000000002","1076380"
"4047","Khodlova","50.11029","14.604070000000002","0437880"
"4048","Nový Knín,Libčice","49.754870000000004","14.308620000000001","0818090"
"4049","Rabyně,Nedvězí","49.80565","14.473329999999999","1372430"
"405","E7","50.0846","14.42389","1270270"
"4051","Rabyně,Strážovna","49.79776","14.472920000000002","1372190"
"4053","Rabyně,Rozc.Blaženice","49.792","14.472079999999998","1372190"
"4057","Rabyně,Blaženice","49.789359999999995","14.46996","1372190"
"4059","Neveklov,Jablonka","49.77834","14.464789999999999","0561540"
"406","E8","50.08453","14.42317","1270270"
"4063","Neveklov,Jablonná","49.78007","14.45106","0561540"
"4065","Rabyně,Měřín","49.78982","14.43002","1372350"
"4067","Voznice,Polesí","49.81212","14.211979999999999","1850510"
"4069","Klamovka","50.07063","14.38003","1287830"
"407","E9","50.08247","14.42561","1270780"
"4075","Vlkančice,U Zbořeného mlýna","49.91044","14.90294","1839460"
"4077","Vlkančice,U Králů","49.89754","14.8962","1839460"
"4079","Vlkančice,Pyskočely,Plužiny","49.87925","14.87226","1839380"
"408","E10","50.08198","14.425579999999998","1270780"
"4081","Mníšek p.Brdy,U Hřbitova","49.861090000000004","14.266420000000002","0976240"
"4083","Mníšek p.Brdy,Žel.st.","49.85395","14.269639999999999","3268100"
"4085","Mníšek pod Brdy","49.85382","14.26992","3268100"
"4086","Chotilsko","49.76941","14.35275","0532951"
"4087","Chotilsko,Prostřední Lhota","49.75373","14.34099","1337870"
"4089","Chotilsko,Mokrsko","49.74478","14.33605","1337790"
"409","E11","50.08189","14.425770000000002","1270780"
"4091","Čestlice,Kika-Aquapalace","50.00763","14.573360000000001","3245580"
"4093","Kunice,U Dálnice","49.939679999999996","14.66879","0772320"
"4095","Klánova","50.021370000000005","14.423779999999999","1278410"
"4097","Davle,Sloup,U Jeřábu","49.89067","14.37674","0248480"
"4099","Sedlec,PEMA","50.184909999999995","14.44956","1466760"
"410","E12","50.081959999999995","14.42622","1270780"
"4101","Mnichovice,zdrav.stř.","49.93757","14.706170000000002","0975431"
"4103","Kunice,Všešímy","49.92396","14.69215","0772590"
"4104","Kunice,Všešímy,Pardálov","49.92732","14.683229999999998","0772590"
"4106","Černošice,U Kamenného mostu","49.94057","14.326329999999999","0203710"
"4107","Černošice,Dr.Janského","49.95087","14.328829999999998","0203710"
"4108","Chýně,Na Vyhlídce","50.05399","14.22626","3267390"
"411","E13","50.08208","14.426420000000002","1270780"
"4110","Lety,K Libří","49.9248","14.241220000000002","0807640"
"4112","Klánovice","50.09895","14.685939999999999","0654470"
"4114","Lety,Karlštejnská","49.92307","14.253","0807640"
"4116","Přezletice,Horní náves","50.15657","14.57567","1353050"
"4118","Lety,Na Návsi","49.92175","14.25629","0807640"
"4119","Škola Velká Chuchle","50.01202","14.38233","1292160"
"412","E14","50.08214","14.4265","1270510"
"4120","Písková Lhota","50.13102","15.069320000000001","1209790"
"4122","Poděbrady,Přední Lhota,U Kopečků","50.13196","15.08686","1343840"
"4126","Poděbrady,Hřbitov","50.13361","15.1027","0666720"
"4128","Poděbrady,Riegrovo nám.","50.14363","15.12243","1235100"
"413","E15","50.08235","14.42656","1270510"
"4130","Poděbrady,Žel.st.","50.14884","15.124360000000001","1235282"
"4132","Poděbrady","50.14956","15.12376","1235282"
"4135","Klárův ústav","50.0277","14.45715","1280580"
"4137","Zvěřínek","50.15534","15.00774","1938360"
"414","E16","50.08267","14.42661","1270510"
"4142","Lužiny","50.0445","14.33044","3062230"
"4143","Obchodní centrum, Archeologická ul.","50.04453","14.331610000000001","3168310"
"4144","Tržiště, Zázvorkova ul.","50.04469","14.331560000000001","3062230"
"4148","Pečky,Kult.dům","50.09192","15.0333","1188260"
"415","E17","50.08287","14.42655","1270510"
"4150","Sadská,Hálkova","50.14078","14.987639999999999","1459210"
"4152","Písková Lhota,rozc.Hořátev","50.13187","15.06076","1209790"
"4154","Zvěřínek,rozc.Hořátev","50.152","15.00574","1938360"
"4156","Písty,Temac","50.15925","15.009670000000002","1210290"
"4158","Písty","50.16409","15.003020000000001","1210290"
"4159","Hořátev,technologický park","50.15173","15.025079999999999","0450210"
"416","E2 linka B, E2 line B","50.083","14.42145","1269930"
"4161","Hořátev,ZD","50.14979","15.042720000000001","0450210"
"4163","Kladno,L.Zápotockého","50.1433","14.08046","0650050"
"4164","Klíčov","50.1169","14.514270000000002","1310240"
"4166","Bertramka","50.07223","14.393289999999999","1287910"
"4168","Valcha","50.13171","14.53815","1316360"
"417","E3 linka B, E3 line B","50.082840000000004","14.421729999999998","1270780"
